{"trip_id":"1990-di-ian-windmill-hill-avebury-devizes","epigraph":{"quote":"Originally a mill, again lots of water, very, very pretty. Cows, goats, hens, peacocks. Clean loos."},"moments":[{"seq":2,"place_id":"norton-wiltshire-uk","lon":-2.161818,"lat":51.5650551,"place":"Norton, Wiltshire, UK","date":"1990-04-20","role":"overnight_base","quote":"We stayed the night in their garden, using the bathroom in the bungalow. Great!","images":[]},{"seq":3,"place_id":"windmill-hill-avebury-wiltshire-uk","lon":-1.8761023,"lat":51.4415478,"place":"Windmill Hill, Avebury, Wiltshire, UK","date":"1990-04-20","role":"main_stop","quote":"We went for a walk up Windmill Hill.","images":[]},{"seq":4,"place_id":"avebury-wiltshire-uk","lon":-1.8517053,"lat":51.4286099,"place":"Avebury, Wiltshire, UK","date":"1990-04-20","role":"main_stop","quote":"The wood turner made a rattle for Charles.","images":[]},{"seq":5,"place_id":"west-kennet-long-barrow-wiltshire-uk","lon":-1.8504375,"lat":51.4086455,"place":"West Kennet Long Barrow, Wiltshire, UK","date":"1990-04-20","role":"main_stop","quote":"we walked up to West Kennet Long Barrow, into the Neolithic Burial Chamber.","images":[]},{"seq":6,"place_id":"devizes-wiltshire-uk","lon":-1.9958302,"lat":51.3525027,"place":"Devizes, Wiltshire, UK","date":"1990-04-20","role":"main_stop","quote":"We drove on and looked around Devizes. Antique Book Shop, drinks.","images":[]},{"seq":7,"place_id":"rowde-wiltshire-uk","lon":-2.0322353,"lat":51.364057,"place":"Rowde, Wiltshire, UK","date":"1990-04-20","role":"overnight_base","quote":"In the evening we walked a mile along the foot path up to the Bear for supper","images":[]},{"seq":8,"place_id":"bowden-hill-wiltshire-uk","lon":-2.0940864,"lat":51.4110718,"place":"Bowden Hill, Wiltshire, UK","date":"1990-04-20","role":"main_stop","quote":"At the top of the field a tree had blown over + we had to climb up 10ft to get over it.","images":[]},{"seq":9,"place_id":"lacock-wiltshire-uk","lon":-2.1193391,"lat":51.4214178,"place":"Lacock, Wiltshire, UK","date":"1990-04-20","role":"main_stop","quote":"We walked around Lacock, very pretty, weavers' houses.","images":[]},{"seq":10,"place_id":"bradford-on-avon-wiltshire-uk","lon":-2.2504329,"lat":51.346715,"place":"Bradford-on-Avon, Wiltshire, UK","date":"1990-04-20","role":"main_stop","quote":"A delicious cream tea at the Bridge Tea Room. Violin with Lion head.","images":[]},{"seq":11,"place_id":"stowford-farm-near-trowbridge-wiltshire-uk","lon":-2.2717327,"lat":51.3180095,"place":"Stowford Farm, near Trowbridge, Wiltshire, UK","date":"1990-04-20","role":"overnight_base","quote":"Originally a mill, again lots of water, very, very pretty. Cows, goats, hens, peacocks. Clean loos.","images":[]},{"seq":12,"place_id":"bath-somerset-uk","lon":-2.3596963,"lat":51.3813864,"place":"Bath, Somerset, UK","date":"1990-04-20","role":"main_stop","quote":"We've brought Thomas a plaster angel with guitar.","images":[]}]}