{"trip_id":"1991-france-1991-montreuil-rouen-chartres-retrospective","epigraph":{"quote":"John & Charles have enjoyed everything, & been no trouble."},"moments":[{"seq":2,"place_id":"dover","lon":1.3266,"lat":51.1264,"place":"Dover","date":"1991-07-11","role":"crossing_terminal","quote":"We drove straight onto the ferry just after 4.30.","images":[]},{"seq":3,"place_id":"calais-france","lon":1.8538446,"lat":50.9524769,"place":"Calais, France","date":"1991-07-11","role":"crossing_terminal","quote":"Eve ate fish & chips on the ferry & was sick in the night.","images":[]},{"seq":4,"place_id":"montreuil-sur-mer-france","lon":1.7631125,"lat":50.4638918,"place":"Montreuil-sur-Mer, France","date":"1991-07-11","role":"overnight_base","quote":"We camped in Fontaines des Cleres campsite **** at Montreuil, a pretty walled town 40 minutes from Boulogne.","images":[]},{"seq":5,"place_id":"abbeville-france","lon":1.8337029,"lat":50.1060835,"place":"Abbeville, France","date":"1991-07-11","role":"transit_stop","quote":"We stopped at Abbeville, to buy William sandals.","images":[]},{"seq":6,"place_id":"rouen-france","lon":1.0939658,"lat":49.4404591,"place":"Rouen, France","date":"1991-07-11","role":"main_stop","quote":"We rode in a \"train\" round the old wooden streets","images":[]}]}