{"trip_id":"1994-cornwall-upton-festival-st-ives-lizard","epigraph":{"quote":"Reminiscient nostalgic smells from azaleas playing hide-and-seek in the garden."},"moments":[{"seq":2,"place_id":"upton-upon-severn-uk","lon":-2.2151396,"lat":52.0611191,"place":"Upton-upon-Severn, UK","date":"1994-04-30","role":"main_stop","quote":"Lovely old small theatre with minstrel's gallery & high stage, dark brown velvet curtains.","images":[]},{"seq":3,"place_id":"welland-worcestershire-uk","lon":-2.2981546,"lat":52.0583141,"place":"Welland, Worcestershire, UK","date":"1994-04-30","role":"overnight_base","quote":"We spent the night at The Anchor Pub, near Welland, + had a drink at the pub.","images":[]},{"seq":4,"place_id":"altarnun-cornwall-uk","lon":-4.5117408,"lat":50.6034015,"place":"Altarnun, Cornwall, UK","date":"1994-04-30","role":"overnight_base","quote":"Windmills turn in the distance.","images":[]},{"seq":5,"place_id":"delabole-cornwall-uk","lon":-4.7323369,"lat":50.6233563,"place":"Delabole, Cornwall, UK","date":"1994-04-30","role":"main_stop","quote":"Each blade 16 m. long. Each windmill produces enough electricity for 300 homes.","images":[]},{"seq":6,"place_id":"polzeath-cornwall-uk","lon":-4.9149007,"lat":50.5728393,"place":"Polzeath, Cornwall, UK","date":"1994-04-30","role":"main_stop","quote":"Sunshine, majestic waves. Surfing.","images":[]},{"seq":7,"place_id":"st-columb-major-cornwall-uk","lon":-4.9402663,"lat":50.4350863,"place":"St Columb Major, Cornwall, UK","date":"1994-04-30","role":"overnight_base","quote":"Nice old has-been town.","images":[{"src":"media/1994-cornwall-upton-festival-st-ives-lizard/A_0120_R_1.webp","w":900,"h":198,"caption":"View from the van, Malvern Hills","type":"sketch"}]},{"seq":8,"place_id":"truro-cornwall-uk","lon":-5.0510525,"lat":50.2633381,"place":"Truro, Cornwall, UK","date":"1994-04-30","role":"main_stop","quote":"Lovely organ music. Interesting monuments.","images":[]},{"seq":9,"place_id":"st-ives-cornwall-uk","lon":-5.4795083,"lat":50.2149064,"place":"St Ives, Cornwall, UK","date":"1994-04-30","role":"overnight_base","quote":"gorgeous turquoise sea with white crests","images":[{"src":"media/1994-cornwall-upton-festival-st-ives-lizard/A_0121_R_1.webp","w":727,"h":900,"caption":"Madonna + Child by Barbara Hepworth","type":"photo"}]},{"seq":10,"place_id":"st-just-cornwall-uk","lon":-5.6797375,"lat":50.1243845,"place":"St Just, Cornwall, UK","date":"1994-04-30","role":"main_stop","quote":"St. Just has an old, grass-covered circle/ amphitheatre where Mystery Plays were performed","images":[]},{"seq":11,"place_id":"bosavern-st-just-cornwall-uk","lon":-5.6803767,"lat":50.1156577,"place":"Bosavern, St Just, Cornwall, UK","date":"1994-04-30","role":"overnight_base","quote":"Our evening campsite is called Bosavern. We are camped in a beautiful lawned garden.","images":[]},{"seq":12,"place_id":"penzance-cornwall-uk","lon":-5.5358825,"lat":50.1191914,"place":"Penzance, Cornwall, UK","date":"1994-04-30","role":"main_stop","quote":"had a bad cup of coffee & bought cakes at a frigid, Snooty cake-shop","images":[]},{"seq":13,"place_id":"geevor-tin-mine-pendeen-cornwall-uk","lon":-5.6759824,"lat":50.1519485,"place":"Geevor Tin Mine, Pendeen, Cornwall, UK","date":"1994-04-30","role":"main_stop","quote":"Arsenic smells of garlic.","images":[]},{"seq":14,"place_id":"land-s-end-cornwall-uk","lon":-5.7148222,"lat":50.0662633,"place":"Land's End, Cornwall, UK","date":"1994-04-30","role":"main_stop","quote":"we were charged £6 for looking at the sea","images":[]},{"seq":15,"place_id":"mullion-cove-cornwall-uk","lon":-5.255486,"lat":50.0162767,"place":"Mullion Cove, Cornwall, UK","date":"1994-04-30","role":"overnight_base","quote":"One of the prettiest places we've seen, with nice looking chalets. The mill race runs beside the campsite.","images":[]},{"seq":16,"place_id":"lizard-point-cornwall-uk","lon":-5.2063788,"lat":49.9588849,"place":"Lizard Point, Cornwall, UK","date":"1994-04-30","role":"main_stop","quote":"I had a cream tea for elevenses.","images":[]},{"seq":17,"place_id":"trebah-garden-cornwall-uk","lon":-5.1223538,"lat":50.1032553,"place":"Trebah Garden, Cornwall, UK","date":"1994-04-30","role":"main_stop","quote":"Reminiscient nostalgic smells from azaleas playing hide-and-seek in the garden.","images":[]},{"seq":18,"place_id":"liskeard-cornwall-uk","lon":-4.4650527,"lat":50.4551779,"place":"Liskeard, Cornwall, UK","date":"1994-04-30","role":"overnight_base","quote":"We drove east + ended up having a good supper at the Stag at Liskeard","images":[]},{"seq":19,"place_id":"saltash-cornwall-uk","lon":-4.2112226,"lat":50.4086702,"place":"Saltash, Cornwall, UK","date":"1994-04-30","role":"transit_stop","quote":"Exciting to see the Tamar","images":[{"src":"media/1994-cornwall-upton-festival-st-ives-lizard/A_0125_L_1.webp","w":900,"h":706,"caption":"Brunel's Royal Albert Bridge, Saltash","type":"sketch"},{"src":"media/1994-cornwall-upton-festival-st-ives-lizard/A_0125_R_1.webp","w":579,"h":900,"caption":"Trebah Valley garden scenes incl. Helford Vista, Rain Forest, Tree Fern","type":"postcard"}]}]}