{"trip_id":"1995-lake-district-rydal-coniston-brantwood-eskdale","epigraph":{"quote":"We are camped right next to the water with only some bushes between us + the waves."},"moments":[{"seq":2,"place_id":"foxcovert-farm-near-knutsford-cheshire","lon":-2.3852436,"lat":53.2551641,"place":"Foxcovert Farm, near Knutsford, Cheshire","date":"1995-04-27","role":"overnight_base","quote":"Very pretty sheltered small valley.","images":[]},{"seq":3,"place_id":"bowness-on-windermere-cumbria","lon":-2.9177884,"lat":54.3664775,"place":"Bowness-on-Windermere, Cumbria","date":"1995-04-27","role":"transit_stop","quote":"We had lunch at Bowness next to a graveyard","images":[]},{"seq":4,"place_id":"rydal-water-cumbria","lon":-2.9901732,"lat":54.4472206,"place":"Rydal Water, Cumbria","date":"1995-04-27","role":"main_stop","quote":"We walked 3 miles around Rydal Water, seeing Wordsworth's house which was closed, as it was after 5pm","images":[]},{"seq":5,"place_id":"hawkshead-cumbria","lon":-3.021102,"lat":54.372435,"place":"Hawkshead, Cumbria","date":"1995-04-27","role":"overnight_base","quote":"Stuck in a time-warp. The railway never came.","images":[]},{"seq":6,"place_id":"coniston-cumbria","lon":-3.0752426,"lat":54.3700872,"place":"Coniston, Cumbria","date":"1995-04-27","role":"overnight_base","quote":"We've camped at Pier Cottage * * * * which is so beautiful that we have decided to stay more than one night.","images":[]}]}