{"trip_id":"1995-spain-picos-de-europa-santiago-galicia","epigraph":{"quote":"It turned out to be brandy. By the time Eve had drunk Charles's + Thomas's + her own, she was in a much better mood."},"moments":[{"seq":2,"place_id":"southampton-uk","lon":-1.404189,"lat":50.9025349,"place":"Southampton, UK","date":"1995-07-25","role":"crossing_terminal","quote":"The ferry left at 8 pm & got in at 7am on Thu. It was rather sickening.","images":[]},{"seq":3,"place_id":"castro-urdiales-spain","lon":-3.2162576,"lat":43.3843347,"place":"Castro-Urdiales, Spain","date":"1995-07-25","role":"main_stop","quote":"The town had lovely balconies & a market where we bought food. John & Charles went in the playground.","images":[]},{"seq":4,"place_id":"mogro-cantabria-spain","lon":-3.9604347,"lat":43.4249982,"place":"Mogro, Cantabria, Spain","date":"1995-07-25","role":"transit_stop","quote":"The tide was coming in & covering up John's & Charles' holes in the sand.","images":[]},{"seq":5,"place_id":"santillana-del-mar-cantabria-spain","lon":-4.108048,"lat":43.3906511,"place":"Santillana del Mar, Cantabria, Spain","date":"1995-07-25","role":"overnight_base","quote":"Simon & Eve walked past a field with cows in down to the \"prettiest village in Spain.\" It is beautiful in all directions.","images":[{"src":"media/1995-spain-picos-de-europa-santiago-galicia/A_0155_L_1.webp","w":773,"h":900,"caption":"St. Juliana taking the demon captive","type":"photo"}]},{"seq":6,"place_id":"san-vicente-de-la-barquera-cantabria-spain","lon":-4.40027,"lat":43.38318,"place":"San Vicente de la Barquera, Cantabria, Spain","date":"1995-07-25","role":"transit_stop","quote":"we tasted cheeses + sausage at the market. The town was built on a good defensive position on 2 estuaries.","images":[]},{"seq":7,"place_id":"covadonga-asturias-spain","lon":-5.0615406,"lat":43.3042052,"place":"Covadonga, Asturias, Spain","date":"1995-07-25","role":"overnight_base","quote":"The church was firmly shut for the service, + Simon was wearing shorts, so we didn't attempt to go. It's enough to make you turn Quaker.","images":[{"src":"media/1995-spain-picos-de-europa-santiago-galicia/A_0156_R_1.webp","w":653,"h":900,"caption":"Peter + John, Thomas + Charles in boats.","type":"sketch"}]},{"seq":8,"place_id":"riano-leon-spain","lon":-5.0056656,"lat":42.9756044,"place":"Riaño, León, Spain","date":"1995-07-25","role":"transit_stop","quote":"We stopped to have tea at Riano which is on a mega lake, a small marina + modern houses.","images":[{"src":"media/1995-spain-picos-de-europa-santiago-galicia/A_0157_L_1.webp","w":900,"h":278,"caption":"Looking East across the Picos after crossing the pass at Ponton","type":"sketch"}]},{"seq":9,"place_id":"mansilla-de-las-mulas-leon-spain","lon":-5.4169163,"lat":42.4991013,"place":"Mansilla de las Mulas, León, Spain","date":"1995-07-25","role":"overnight_base","quote":"Most villages have a stork's nest on the church.","images":[]},{"seq":10,"place_id":"leon-spain","lon":-5.9714151,"lat":42.6341451,"place":"León, Spain","date":"1995-07-25","role":"main_stop","quote":"Grills around monuments - Charles's question to me \"Mummy, why don't they let you see Jesus?\"","images":[]},{"seq":11,"place_id":"san-martin-de-castaneda-zamora-spain","lon":-6.7210773,"lat":42.1356513,"place":"San Martín de Castañeda, Zamora, Spain","date":"1995-07-25","role":"overnight_base","quote":"The 4 boys played in the river morning and afternoon.","images":[]},{"seq":12,"place_id":"o-cebreiro-lugo-spain","lon":-7.0530159,"lat":42.7176674,"place":"O Cebreiro, Lugo, Spain","date":"1995-07-25","role":"main_stop","quote":"OCebreiro is high up, with lovely views of hills, on the Pilgrimage route. Some of the thatched rooves with plaited ropes over them.","images":[{"src":"media/1995-spain-picos-de-europa-santiago-galicia/A_0159_R_1.webp","w":900,"h":606,"caption":"church with stork's nest Villamartin","type":"sketch"},{"src":"media/1995-spain-picos-de-europa-santiago-galicia/A_0160_L_1.webp","w":616,"h":900,"caption":"Santiago de Compostella","type":"photo"}]},{"seq":13,"place_id":"portomarin-lugo-spain","lon":-7.6813922,"lat":42.8161992,"place":"Portomarín, Lugo, Spain","date":"1995-07-25","role":"main_stop","quote":"The valley was flooded for controlling water for irrigation, + the church was brought up, stone by stone, to a higher village. The stones still had numbers on.","images":[]},{"seq":14,"place_id":"santiago-de-compostela-spain","lon":-8.5192983,"lat":42.9064576,"place":"Santiago de Compostela, Spain","date":"1995-07-25","role":"overnight_base","quote":"tourists swarm all around, admiring, gawping, eating crepes, achieving their goal.","images":[]},{"seq":15,"place_id":"leis-muxia-a-coruna-spain","lon":-9.153616,"lat":43.1153215,"place":"Leis, Muxía, A Coruña, Spain","date":"1995-07-25","role":"overnight_base","quote":"We had a delicious lunch - 2 crabs among 3 of us","images":[]},{"seq":16,"place_id":"vigo-spain","lon":-8.727956,"lat":42.1986395,"place":"Vigo, Spain","date":"1995-07-25","role":"transit_stop","quote":"We crossed into Portugal, after Eve drove a lightening tour in Vigo.","images":[]},{"seq":17,"place_id":"braga-portugal","lon":-8.4280045,"lat":41.5510583,"place":"Braga, Portugal","date":"1995-07-25","role":"overnight_base","quote":"a glorious view, first of the sunset across the city, then of skyscrapers sparking in dawn sun - churches, working cranes.","images":[]},{"seq":18,"place_id":"porto-portugal","lon":-8.6103497,"lat":41.1502195,"place":"Porto, Portugal","date":"1995-07-25","role":"main_stop","quote":"We visited St. Francis Church. Amazeing. Covered in a gold fungus.","images":[]},{"seq":19,"place_id":"cinfaes-portugal","lon":-8.1080075,"lat":41.0326798,"place":"Cinfães, Portugal","date":"1995-07-25","role":"transit_stop","quote":"The campsite smells of beautiful pines.","images":[]},{"seq":20,"place_id":"castro-daire-portugal","lon":-7.9311761,"lat":40.9014091,"place":"Castro Daire, Portugal","date":"1995-07-25","role":"overnight_base","quote":"Amazing view of ridges of mountains to the south. Very tiring zig zag roads.","images":[]},{"seq":21,"place_id":"castelo-mendo-portugal","lon":-6.9485883,"lat":40.594514,"place":"Castelo Mendo, Portugal","date":"1995-07-25","role":"main_stop","quote":"3 people were filling up bottles at the 2 village taps. 3 churches, 2 locked & one open – roof has fallen in.","images":[]},{"seq":22,"place_id":"ciudad-rodrigo-salamanca-spain","lon":-6.5337192,"lat":40.5974852,"place":"Ciudad Rodrigo, Salamanca, Spain","date":"1995-07-25","role":"main_stop","quote":"we arrived at Ciudad Rodrigo, & saw the cathedral with good Romanesque carvings. The square was pretty, people dancing and celebrating, we had icecream.","images":[]},{"seq":23,"place_id":"la-alberca-salamanca-spain","lon":-6.1104867,"lat":40.4889361,"place":"La Alberca, Salamanca, Spain","date":"1995-07-25","role":"overnight_base","quote":"It had a pale turquoise swimming pool + lovely views of hills. We swam. We picked blackberries.","images":[{"src":"media/1995-spain-picos-de-europa-santiago-galicia/A_0164_L_1.webp","w":630,"h":451,"caption":"Bodegas Dueñas regional map label","type":"ticket"},{"src":"media/1995-spain-picos-de-europa-santiago-galicia/A_0165_L_1.webp","w":900,"h":616,"caption":"Bodegas Dueñas Tinto Puente wine label","type":"ticket"}]},{"seq":24,"place_id":"salamanca-spain","lon":-5.6640182,"lat":40.9651572,"place":"Salamanca, Spain","date":"1995-07-25","role":"main_stop","quote":"We had the best meal of the trip at San Ricardo, inside pink granite portals.","images":[]},{"seq":25,"place_id":"tordesillas-valladolid-spain","lon":-5.00053,"lat":41.500851,"place":"Tordesillas, Valladolid, Spain","date":"1995-07-25","role":"overnight_base","quote":"The storm came close so the boys weren't allowed to swim at first. Then we all swam.","images":[]},{"seq":26,"place_id":"lerma-burgos-spain","lon":-3.7559335,"lat":42.0262334,"place":"Lerma, Burgos, Spain","date":"1995-07-25","role":"transit_stop","quote":"We next stopped in a field of poplars near Lerma. Fewer wasps.","images":[]},{"seq":27,"place_id":"covarrubias-burgos-spain","lon":-3.5201803,"lat":42.0592944,"place":"Covarrubias, Burgos, Spain","date":"1995-07-25","role":"transit_stop","quote":"The village was pretty, a monastery is there, but we drove on.","images":[]},{"seq":28,"place_id":"santo-domingo-de-silos-burgos-spain","lon":-3.4185675,"lat":41.962597,"place":"Santo Domingo de Silos, Burgos, Spain","date":"1995-07-25","role":"transit_stop","quote":"a beautiful cloister, but the queue was too long.","images":[]},{"seq":29,"place_id":"abejar-soria-spain","lon":-2.785771,"lat":41.8076969,"place":"Abejar, Soria, Spain","date":"1995-07-25","role":"overnight_base","quote":"a lovely clover-shaped swimming pool + a canopy of pines.","images":[]},{"seq":30,"place_id":"vinuesa-soria-spain","lon":-2.7631085,"lat":41.9117774,"place":"Vinuesa, Soria, Spain","date":"1995-07-25","role":"transit_stop","quote":"Wash house, long + low, with river, mill-race, flowing through. Stones for women to kneel + rub clothes.","images":[]},{"seq":31,"place_id":"najera-la-rioja-spain","lon":-2.7336874,"lat":42.416745,"place":"Nájera, La Rioja, Spain","date":"1995-07-25","role":"overnight_base","quote":"The best campsite we've been in this holiday - We are in a circular courtyard.","images":[]},{"seq":32,"place_id":"bilbao-spain","lon":-2.9350039,"lat":43.2630018,"place":"Bilbao, Spain","date":"1995-07-25","role":"crossing_terminal","quote":"John + Charles + I joined in some dancing.","images":[]},{"seq":33,"place_id":"portsmouth-uk","lon":-1.0906023,"lat":50.800031,"place":"Portsmouth, UK","date":"1995-07-25","role":"crossing_terminal","quote":"We set off from Portsmouth for Birmingham at 4.40. pm.","images":[{"src":"media/1995-spain-picos-de-europa-santiago-galicia/A_0167_R_1.webp","w":762,"h":900,"caption":"Romanesque church tympanum carved relief","type":"photo"}]}]}