{"trip_id":"1998-norway-sweden-1998-bergen-fjords-oslo","epigraph":{"quote":"It is amazingly light late & early - even the dark isn't very dark."},"moments":[{"seq":2,"place_id":"north-shields-newcastle-uk","lon":-1.5802414,"lat":54.9770311,"place":"North Shields, Newcastle, UK","date":"1998-07-27","role":"crossing_terminal","quote":"we reached North Shields, New Castle, at 4.0., just in time for the queue to get on the Ferry to Bergen.","images":[]},{"seq":3,"place_id":"breistein-bergen-norway","lon":5.4015283,"lat":60.4874862,"place":"Breistein, Bergen, Norway","date":"1998-07-27","role":"overnight_base","quote":"It is amazingly light late & early - even the dark isn't very dark.","images":[]},{"seq":4,"place_id":"voss-norway","lon":6.4079051,"lat":60.6837067,"place":"Voss, Norway","date":"1998-07-27","role":"transit_stop","quote":"The bus stops have grass growing out of the roofs.","images":[{"src":"media/1998-norway-sweden-1998-bergen-fjords-oslo/A_0236_R_1.webp","w":900,"h":787,"caption":"Borgund stave church","type":"postcard"},{"src":"media/1998-norway-sweden-1998-bergen-fjords-oslo/A_0235_L_1.webp","w":573,"h":853,"caption":"CHRISTIANIA knitwear catalogue cut-out","type":"ticket"}]},{"seq":6,"place_id":"solvorn-norway","lon":7.2474536,"lat":61.3013361,"place":"Solvorn, Norway","date":"1998-07-27","role":"overnight_base","quote":"Simon + I were still spinning clothes at nearly midnight.","images":[]},{"seq":7,"place_id":"f-rde-norway","lon":5.8571725,"lat":61.4521759,"place":"Førde, Norway","date":"1998-07-27","role":"overnight_base","quote":"Simon & the boys broke camp in record time & followed for 1½ hours in the van. We were very well looked after.","images":[]},{"seq":8,"place_id":"urnes-luster-norway","lon":7.3202057,"lat":61.297626,"place":"Urnes, Luster, Norway","date":"1998-07-27","role":"main_stop","quote":"We could climb up into the gallery + see beautifully carved capitals.","images":[{"src":"media/1998-norway-sweden-1998-bergen-fjords-oslo/A_0239_L_1.webp","w":731,"h":435,"caption":"A model of two Edwardians on their Harley Davidson at the Solomon museum","type":"photo"}]},{"seq":9,"place_id":"skjolden-luster-norway","lon":7.5999119,"lat":61.4909214,"place":"Skjolden, Luster, Norway","date":"1998-07-27","role":"overnight_base","quote":"We found a beautiful valley to camp in, with a lake...views of waterfalls.","images":[]},{"seq":10,"place_id":"koppang-norway","lon":11.0499925,"lat":61.5710031,"place":"Koppang, Norway","date":"1998-07-27","role":"overnight_base","quote":"We have come to wild camp, much to William's disgust.","images":[{"src":"media/1998-norway-sweden-1998-bergen-fjords-oslo/A_0240_R_1.webp","w":800,"h":900,"caption":"Ringebu Stave church","type":"postcard"}]},{"seq":11,"place_id":"holjes-sweden","lon":12.5960838,"lat":60.9017513,"place":"Höljes, Sweden","date":"1998-07-27","role":"overnight_base","quote":"The old wooden houses are beautiful with wood fretwork around their balconies & eaves.","images":[]},{"seq":12,"place_id":"torsby-sweden","lon":13.083333,"lat":60.5,"place":"Torsby, Sweden","date":"1998-07-27","role":"transit_stop","quote":"We drove through Sysslebäck to Torsby, where we had to buy a new tyre for £110.","images":[]},{"seq":13,"place_id":"humletorp-sunne-sweden","lon":13.3566381,"lat":59.6848845,"place":"Humletorp, Sunne, Sweden","date":"1998-07-27","role":"overnight_base","quote":"We camped in a very pretty meadow.","images":[{"src":"media/1998-norway-sweden-1998-bergen-fjords-oslo/A_0242_L_1.webp","w":732,"h":900,"caption":"Selma Lagerlöfs house at Mårbacka","type":"photo"}]},{"seq":14,"place_id":"oslo-norway","lon":10.7389701,"lat":59.9133301,"place":"Oslo, Norway","date":"1998-07-27","role":"overnight_base","quote":"We all met up in 2 large tents & celebrated Crayfish fest, singing + dancing + drinking + eating crayfish.","images":[{"src":"media/1998-norway-sweden-1998-bergen-fjords-oslo/A_0243_R_1.webp","w":900,"h":819,"caption":"The Gokstad Ship","type":"photo"},{"src":"media/1998-norway-sweden-1998-bergen-fjords-oslo/A_0244_L_1.webp","w":801,"h":900,"caption":"Brekatedralen - Nigardsbreen","type":"postcard"}]},{"seq":15,"place_id":"fiskum-kongsberg-norway","lon":9.806057,"lat":59.7026495,"place":"Fiskum, Kongsberg, Norway","date":"1998-07-27","role":"overnight_base","quote":"The campsite is a pretty old farm, with old barns & surrounded by orchards.","images":[]},{"seq":16,"place_id":"kongsberg-norway","lon":9.6708601,"lat":59.5945501,"place":"Kongsberg, Norway","date":"1998-07-27","role":"transit_stop","quote":"The old miners wore leather aprons at the back — arse leathers — to sit on while they worked.","images":[{"src":"media/1998-norway-sweden-1998-bergen-fjords-oslo/A_0246_L_1.webp","w":484,"h":900,"caption":"Charles picture of Transport","type":"sketch"},{"src":"media/1998-norway-sweden-1998-bergen-fjords-oslo/A_0246_R_1.webp","w":708,"h":242,"caption":"decorative floral cover visible","type":"sketch"},{"src":"media/1998-norway-sweden-1998-bergen-fjords-oslo/A_0246_R_2.webp","w":900,"h":309,"caption":"street scene with row of vehicles","type":"sketch"}]},{"seq":17,"place_id":"vemork-rjukan-norway","lon":8.1012695,"lat":59.7281091,"place":"Vemork, Rjukan, Norway","date":"1998-07-27","role":"main_stop","quote":"The factory appeared impregnable, perched on a cliff above a gorge.","images":[]},{"seq":18,"place_id":"amot-vinje-norway","lon":7.991137,"lat":59.5696947,"place":"Åmot, Vinje, Norway","date":"1998-07-27","role":"overnight_base","quote":"there was a mega ant nest & blue berries. A lake. Very pretty.","images":[]},{"seq":19,"place_id":"rygnestadtunet-valle-setesdal-norway","lon":7.4895667,"lat":59.2629669,"place":"Rygnestadtunet, Valle, Setesdal, Norway","date":"1998-07-27","role":"main_stop","quote":"friendly sheep came up to be stroked, making the boys nervous.","images":[]},{"seq":20,"place_id":"sirdal-norway","lon":6.8221129,"lat":58.8454,"place":"Sirdal, Norway","date":"1998-07-27","role":"overnight_base","quote":"In Sept 40,000 sheep are herded down to Sirdal.","images":[{"src":"media/1998-norway-sweden-1998-bergen-fjords-oslo/A_0250_L_1.webp","w":900,"h":822,"caption":"Stiklemuseet. 1590's Farm buildings.","type":"photo"}]},{"seq":21,"place_id":"stavanger-norway","lon":5.7318101,"lat":58.9699675,"place":"Stavanger, Norway","date":"1998-07-27","role":"crossing_terminal","quote":"Musicians rehearsing, wind sextet, so we could not see the cathedral fully.","images":[]},{"seq":22,"place_id":"north-shields-newcastle-uk","lon":-1.5802414,"lat":54.9770311,"place":"North Shields, Newcastle, UK","date":"1998-07-27","role":"crossing_terminal","quote":"we saw the tubes around a building of swimming slides. So we went for a super swim with lots of slides.","images":[]},{"seq":23,"place_id":"lincolnshire-uk","lon":-0.2031209,"lat":53.1823034,"place":"Lincolnshire, UK","date":"1998-07-27","role":"main_stop","quote":"Thomas + Ernest Smith met us at the cross roads – in a gorgeous red Morgan.","images":[]}]}