{"trip_id":"2005-france-provence-verdon-drome-vercors-burgundy","epigraph":{"quote":"It was glorious - like a bath in Crème de Menthe, the water was chalky + cold + my skin felt soft."},"moments":[{"seq":2,"place_id":"esparron-de-verdon-france","lon":5.9737733,"lat":43.7390263,"place":"Esparron-de-Verdon, France","date":"2005-08-01","role":"overnight_base","quote":"My duck was a bit raw, as was Simon's, but Simon said that's the way the French cook it + he thought it tasted good.","images":[]},{"seq":3,"place_id":"riez-france","lon":6.0930048,"lat":43.8176907,"place":"Riez, France","date":"2005-08-01","role":"transit_stop","quote":"The town is famous for its row of Roman columns + its olive oil, from trees planted by the Romans 100 BC.","images":[{"src":"media/2005-france-provence-verdon-drome-vercors-burgundy/B_0073_L_1.webp","w":900,"h":209,"caption":"Watering machine with 5 bays","type":"sketch"}]},{"seq":4,"place_id":"moustiers-sainte-marie-france","lon":6.2217604,"lat":43.8460089,"place":"Moustiers-Sainte-Marie, France","date":"2005-08-01","role":"overnight_base","quote":"He vowed that if he got home to Moustiers again, he'd hang a star on a chain between the cliffs over the high-up chapel... + he did.","images":[{"src":"media/2005-france-provence-verdon-drome-vercors-burgundy/B_0074_R_1.webp","w":781,"h":900,"caption":"MOUSTIERS Ste-MARIE cité de la faïence","type":"postcard"},{"src":"media/2005-france-provence-verdon-drome-vercors-burgundy/B_0075_R_1.webp","w":822,"h":900,"caption":"Gorges du Verdon","type":"postcard"}]},{"seq":5,"place_id":"saillans-france","lon":-0.2765721,"lat":44.9609242,"place":"Saillans, France","date":"2005-08-01","role":"overnight_base","quote":"It was fabulous, canoeing - lots of rapids ~ Simon + Eve didn't tip up, but John did + Charles did when he fought with John.","images":[{"src":"media/2005-france-provence-verdon-drome-vercors-burgundy/B_0078_R_1.webp","w":339,"h":900,"caption":"Vercors","type":"postcard"},{"src":"media/2005-france-provence-verdon-drome-vercors-burgundy/B_0077_R_1.webp","w":632,"h":900,"caption":"The Drôme, a river for every body – canoe kayak leaflet","type":"ticket"}]},{"seq":6,"place_id":"saint-agnan-en-vercors-france","lon":5.4316198,"lat":44.9354489,"place":"Saint-Agnan-en-Vercors, France","date":"2005-08-01","role":"overnight_base","quote":"5 horses are looking at us over the fence. The mountains around feel very protective.","images":[{"src":"media/2005-france-provence-verdon-drome-vercors-burgundy/B_0079_R_1.webp","w":440,"h":900,"caption":"Musée de la Résistance Départemental en Vercors","type":"ticket"}]},{"seq":7,"place_id":"gorges-de-la-bourne-france","lon":5.5212376,"lat":45.0783146,"place":"Gorges de la Bourne, France","date":"2005-08-01","role":"transit_stop","quote":"Very narrow & very very pretty.","images":[]},{"seq":8,"place_id":"saint-jean-de-vaux-france","lon":4.6991922,"lat":46.8088442,"place":"Saint-Jean-de-Vaux, France","date":"2005-08-01","role":"overnight_base","quote":"went for a swim in the fabulously clean pool (fed from the source) quite cold, but the sun had heated it.","images":[{"src":"media/2005-france-provence-verdon-drome-vercors-burgundy/B_0082_L_1.webp","w":900,"h":569,"caption":"Piscine de St-Jean-de-Vaux, Carte d'Abonnement 12 Entrées","type":"ticket"}]},{"seq":9,"place_id":"beaune-france","lon":4.8380426,"lat":47.0239064,"place":"Beaune, France","date":"2005-08-01","role":"main_stop","quote":"Lovely tiled rooves. Beautiful altar-piece by Roger Van der Weyden.","images":[{"src":"media/2005-france-provence-verdon-drome-vercors-burgundy/B_0083_L_1.webp","w":900,"h":704,"caption":"Hospices de Beaune","type":"postcard"},{"src":"media/2005-france-provence-verdon-drome-vercors-burgundy/B_0083_L_2.webp","w":642,"h":580,"caption":"Last Judgment altarpiece panels","type":"ticket"}]},{"seq":10,"place_id":"guignicourt-france","lon":3.9618156,"lat":49.4441241,"place":"Guignicourt, France","date":"2005-08-01","role":"overnight_base","quote":"After supper I saw an old lady walking by the river who went to sit on a bench. I sat next to her + we chatted.","images":[]},{"seq":11,"place_id":"arques-france","lon":2.2963322,"lat":50.7342937,"place":"Arques, France","date":"2005-08-01","role":"main_stop","quote":"It was modelled on one in Manchester, & was built in the tradition of the Statue of Liberty & the Eiffel Tower.","images":[{"src":"media/2005-france-provence-verdon-drome-vercors-burgundy/B_0084_L_1.webp","w":900,"h":794,"caption":"ASCENSEUR DES FONTINETTES","type":"postcard"}]}]}