{"trip_id":"2006-france-montreuil-bauge-opera-auvergne-millau","epigraph":{"quote":"Dylan played his recorder as the sun set & it was beautiful, beautiful."},"moments":[{"seq":2,"place_id":"dymchurch-kent-uk","lon":0.9936502,"lat":51.0263293,"place":"Dymchurch, Kent, UK","date":"2006-07-23","role":"transit_stop","quote":"We wanted to see a restored Martello Tower No 24 at near Hythe, Dymchurch, but when we got there, it was closed","images":[]},{"seq":3,"place_id":"folkestone-eurotunnel","lon":1.1156,"lat":51.093,"place":"Folkestone (Eurotunnel)","date":"2006-07-23","role":"crossing_terminal","quote":"We caught an earlier [?train] + in under 1½ hours we reached the campsite","images":[]},{"seq":4,"place_id":"la-calotterie-france","lon":1.7263245,"lat":50.4752054,"place":"La Calotterie, France","date":"2006-07-23","role":"overnight_base","quote":"Very green, a grassy valley, cold showers, fresh bread deliveries for breakfast.","images":[]},{"seq":5,"place_id":"abbeville-france","lon":1.8337029,"lat":50.1060835,"place":"Abbeville, France","date":"2006-07-23","role":"transit_stop","quote":"So we drove to Abbeville. After a 2 hour wait, the garage reopened ... the Abbeville garage used one that someone else had already ordered & we were mended.","images":[]},{"seq":6,"place_id":"sace-france","lon":-0.7133129,"lat":48.1856444,"place":"Sacé, France","date":"2006-07-23","role":"overnight_base","quote":"a drive-in campsite in a village, pretty beech hedges, choose your own plot","images":[]},{"seq":7,"place_id":"bauge-en-anjou-france","lon":-0.1036842,"lat":47.5612379,"place":"Baugé-en-Anjou, France","date":"2006-07-23","role":"overnight_base","quote":"the hottest I've every been in my life - sitting streaming with sweat. In the middle we had supper on the grass - delicious paniers arrived. Sweat poured down. Fabulous, fabulous duets.","images":[]},{"seq":8,"place_id":"ids-saint-roch-france","lon":2.2410538,"lat":46.7069817,"place":"Ids-Saint-Roch, France","date":"2006-07-23","role":"overnight_base","quote":"It's a very eccentric campsite in scorched orchards.","images":[{"src":"media/2006-france-montreuil-bauge-opera-auvergne-millau/B_0100_L_1.webp","w":900,"h":703,"caption":"SAINT-FLOUR","type":"postcard"}]},{"seq":9,"place_id":"saint-flour-france","lon":3.5026164,"lat":45.7084425,"place":"Saint-Flour, France","date":"2006-07-23","role":"main_stop","quote":"We set off & shopped outside St. Flour.","images":[]},{"seq":10,"place_id":"viaduc-de-garabit-france","lon":3.1774879,"lat":44.9745645,"place":"Viaduc de Garabit, France","date":"2006-07-23","role":"main_stop","quote":"It was as a result of building the viaduct that Eiffel gained in confidence to build the Eiffel Tower. It's very impressive.","images":[]},{"seq":11,"place_id":"fridefont-france","lon":3.0868213,"lat":44.9014302,"place":"Fridefont, France","date":"2006-07-23","role":"overnight_base","quote":"We had a mega meal at the farmhouse which started at 7.30 & finished after 10.","images":[{"src":"media/2006-france-montreuil-bauge-opera-auvergne-millau/B_0101_L_1.webp","w":900,"h":882,"caption":"VIADUC DE GARABIT","type":"postcard"},{"src":"media/2006-france-montreuil-bauge-opera-auvergne-millau/B_0101_R_1.webp","w":900,"h":853,"caption":"campsite with caravan and tent","type":"sketch"}]},{"seq":12,"place_id":"viaduc-de-millau-millau-france","lon":3.0224087,"lat":44.0799775,"place":"Viaduc de Millau, Millau, France","date":"2006-07-23","role":"main_stop","quote":"After supper, Simon + I walked up a lane to look at it in the sunset, a marvellous site, contrasting with the stink of an enormous pile of chickensh*t on the hillside.","images":[]},{"seq":13,"place_id":"millau-france","lon":3.0777594,"lat":44.1006693,"place":"Millau, France","date":"2006-07-23","role":"overnight_base","quote":"The dog poo in Millan is appalling. Simon trod in a really soupy one.","images":[{"src":"media/2006-france-montreuil-bauge-opera-auvergne-millau/B_0102_R_1.webp","w":833,"h":900,"caption":"Viaduct de Millau","type":"postcard"}]},{"seq":14,"place_id":"entraygues-sur-truyere-france","lon":2.56605,"lat":44.6432147,"place":"Entraygues-sur-Truyère, France","date":"2006-07-23","role":"overnight_base","quote":"one of the best campsites we've ever been in","images":[{"src":"media/2006-france-montreuil-bauge-opera-auvergne-millau/B_0104_L_2.webp","w":630,"h":725,"caption":"Le Dancing","type":"postcard"},{"src":"media/2006-france-montreuil-bauge-opera-auvergne-millau/B_0105_L_1.webp","w":682,"h":900,"caption":"Musée de Millan painted + embroidered gloves made in Millan","type":"photo"},{"src":"media/2006-france-montreuil-bauge-opera-auvergne-millau/B_0106_L_1.webp","w":703,"h":900,"caption":"CONQUES - Détail du Tympan","type":"postcard"}]},{"seq":15,"place_id":"conques-france","lon":2.3981666,"lat":44.5995543,"place":"Conques, France","date":"2006-07-23","role":"main_stop","quote":"The Abbey is as lovely as ever.","images":[]},{"seq":16,"place_id":"cassaniouze-france","lon":2.3829643,"lat":44.6913102,"place":"Cassaniouze, France","date":"2006-07-23","role":"overnight_base","quote":"Girls were playing with lizards in a basin.","images":[]},{"seq":17,"place_id":"figeac-france","lon":2.0324321,"lat":44.6092335,"place":"Figeac, France","date":"2006-07-23","role":"main_stop","quote":"an American has made a large copy of the Rosetta Stone in Zimbabwean granite.","images":[]},{"seq":18,"place_id":"lissac-et-mouret-france","lon":1.9728768,"lat":44.6225343,"place":"Lissac-et-Mouret, France","date":"2006-07-23","role":"overnight_base","quote":"a lovely campsite in an enormous field with walnut trees","images":[{"src":"media/2006-france-montreuil-bauge-opera-auvergne-millau/B_0108_R_1.webp","w":900,"h":350,"caption":"l'Oasienne camping chambres d'hôtes near Figeac","type":"ticket"}]},{"seq":19,"place_id":"le-saillant-voutezac-france","lon":1.4564483,"lat":45.2757515,"place":"Le Saillant, Voutezac, France","date":"2006-07-23","role":"overnight_base","quote":"the current was pretty strong in parts & we bumped our bums","images":[]},{"seq":20,"place_id":"uzerche-france","lon":1.5636393,"lat":45.4243023,"place":"Uzerche, France","date":"2006-07-23","role":"main_stop","quote":"they tricked the Saracens by presenting them with a fat calf & a bale of hay, & the Saracens gave up.","images":[{"src":"media/2006-france-montreuil-bauge-opera-auvergne-millau/B_0109_R_1.webp","w":821,"h":900,"caption":"Uzerche, church of St. Peter + other views of the walled town","type":"postcard"}]},{"seq":21,"place_id":"chamberet-france","lon":1.7213987,"lat":45.5824883,"place":"Chamberet, France","date":"2006-07-23","role":"overnight_base","quote":"We walked through beautiful woods & went to supper at Margaret's hotel.","images":[]},{"seq":22,"place_id":"mont-gargan-france","lon":1.6479624,"lat":45.6201098,"place":"Mont Gargan, France","date":"2006-07-23","role":"transit_stop","quote":"Simon, Eve, Charles, Margaret & Helen left after a leisurely breakfast. We look at the view from Mont Gargan. We drove north","images":[]},{"seq":23,"place_id":"cour-cheverny-france","lon":1.4588243,"lat":47.512759,"place":"Cour-Cheverny, France","date":"2006-07-23","role":"overnight_base","quote":"we had already put up the tent at Courcheveigny municipal camping ... near Chambord ... We went back to Courcheveigny for supper.","images":[]},{"seq":24,"place_id":"chateau-de-chambord-france","lon":1.5170502,"lat":47.6160697,"place":"Château de Chambord, France","date":"2006-07-23","role":"transit_stop","quote":"We picked up M+H & drove past Chateau de Chambord.","images":[]},{"seq":25,"place_id":"saint-fuscien-france","lon":2.3132025,"lat":49.839632,"place":"Saint-Fuscien, France","date":"2006-07-23","role":"overnight_base","quote":"Just south of Amiens, St. Fuscien, is Margaret's hotel. We dropped off her case ... we found a very good place to eat supper, overlooking the boat-gardens, Hortillages.","images":[]},{"seq":26,"place_id":"amiens-france","lon":2.2956951,"lat":49.8941708,"place":"Amiens, France","date":"2006-07-23","role":"main_stop","quote":"Simon drove into Amiens & we found a very good place to eat supper, overlooking the boat-gardens, Hortillages. Lovely scenery.","images":[{"src":"media/2006-france-montreuil-bauge-opera-auvergne-millau/B_0112_R_1.webp","w":836,"h":900,"caption":"weeping on the tomb of Guillan Lucas, Amiens Cathedral","type":"postcard"}]},{"seq":27,"place_id":"coquelles-eurotunnel","lon":1.8147,"lat":50.9228,"place":"Coquelles (Eurotunnel)","date":"2006-07-23","role":"crossing_terminal","quote":"we could hurry through to get on the train (the numbering system for calling us was unclear) but then we just sat infront of the barrier + missed the train.","images":[]},{"seq":28,"place_id":"oldham-uk","lon":-2.1147831,"lat":53.5415797,"place":"Oldham, UK","date":"2006-07-23","role":"transit_stop","quote":"we showed her grandson, little Harry, the camping van","images":[]}]}