{"trip_id":"2007-france-montreuil-reims-provence-malaucene-vaison","epigraph":{"quote":"a beautiful, interesting walk with a goat cheese crepe half way round"},"moments":[{"seq":2,"place_id":"folkestone-eurotunnel","lon":1.1156,"lat":51.093,"place":"Folkestone (Eurotunnel)","date":"2007-07-29","role":"crossing_terminal","quote":"We went through the tunnel & arrived at the White Swan campsite, Montreuil","images":[]},{"seq":3,"place_id":"montreuil-sur-mer-france","lon":1.7631125,"lat":50.4638918,"place":"Montreuil-sur-Mer, France","date":"2007-07-29","role":"overnight_base","quote":"The sea would have once come up the valley. It's called Montreuil - sur - Mer.","images":[]},{"seq":4,"place_id":"reims-france","lon":4.031926,"lat":49.2577886,"place":"Reims, France","date":"2007-07-29","role":"main_stop","quote":"The cathedral windows glowed in the sunshine","images":[{"src":"media/2007-france-montreuil-reims-provence-malaucene-vaison/B_0118_R_1.webp","w":813,"h":900,"caption":"Cathédrale Notre-Dame de Reims","type":"postcard"}]},{"seq":5,"place_id":"connantre-france","lon":3.921526,"lat":48.7252483,"place":"Connantre, France","date":"2007-07-29","role":"overnight_base","quote":"Simon paddled in the lake, Eve swam & the girls watched. A long, sandy Beach.","images":[]},{"seq":6,"place_id":"arcis-sur-aube-france","lon":4.1421213,"lat":48.5362425,"place":"Arcis-sur-Aube, France","date":"2007-07-29","role":"transit_stop","quote":"The girls liked the Chaource cheese & Prawn.","images":[{"src":"media/2007-france-montreuil-reims-provence-malaucene-vaison/B_0119_L_1.webp","w":855,"h":531,"caption":"Nous cuisons dans nos fours l'ensemble de nos pains pour qu'ils obtiennent une mie moelleuse et une croûte croquante et bien dorée.","type":"ticket"}]},{"seq":8,"place_id":"notre-dame-des-vignes-via-valreas-france","lon":6.3807055,"lat":45.6761293,"place":"Notre-Dame des Vignes (via Valréas), France","date":"2007-07-29","role":"main_stop","quote":"She asked Melody & Charlotte if they could hear the grasshoppers","images":[{"src":"media/2007-france-montreuil-reims-provence-malaucene-vaison/B_0119_R_1.webp","w":686,"h":900,"caption":"Reims Cathedral 1974 Chagall left lancet Virgin & Child","type":"photo"}]},{"seq":9,"place_id":"malaucene-france","lon":5.1321258,"lat":44.1732744,"place":"Malaucène, France","date":"2007-07-29","role":"overnight_base","quote":"The chocolate puddings were delicious.","images":[{"src":"media/2007-france-montreuil-reims-provence-malaucene-vaison/B_0120_R_1.webp","w":900,"h":699,"caption":"Roman Bridge over Ouvèze, Vaison-la-Romaine","type":"photo"},{"src":"media/2007-france-montreuil-reims-provence-malaucene-vaison/B_0121_L_1.webp","w":900,"h":656,"caption":"Chaource cheese label, Simon's favourite","type":"ticket"}]},{"seq":10,"place_id":"grimaud-france","lon":6.5222979,"lat":43.2737698,"place":"Grimaud, France","date":"2007-07-29","role":"overnight_base","quote":"We are in a grove of pines + cork oak. The lower trunk bark has been peeled away. There's a distant view of St. Tropez","images":[{"src":"media/2007-france-montreuil-reims-provence-malaucene-vaison/B_0122_L_1.webp","w":900,"h":604,"caption":"L'Annonciade Museum, Edouard Vuillard 1868-1940, La Soupe d'Annette 1900-1901","type":"postcard"},{"src":"media/2007-france-montreuil-reims-provence-malaucene-vaison/B_0121_R_1.webp","w":727,"h":242,"caption":"Senequier St Tropez chocolate wrapper","type":"ticket"},{"src":"media/2007-france-montreuil-reims-provence-malaucene-vaison/B_0121_R_2.webp","w":739,"h":564,"caption":"L'ANNONCIADE musée de Saint-Tropez entry ticket, Picasso Tarif Réduit No 04856","type":"ticket"}]},{"seq":11,"place_id":"frejus-france","lon":6.7360182,"lat":43.4330308,"place":"Fréjus, France","date":"2007-07-29","role":"main_stop","quote":"The amazing old baptistery at the cathedral, for immersion of adults in the floor","images":[]},{"seq":12,"place_id":"saint-laurent-du-var-france","lon":7.1906969,"lat":43.6690101,"place":"Saint-Laurent-du-Var, France","date":"2007-07-29","role":"overnight_base","quote":"Simon was nervous of the man - florid & big-tummied, who stood next to us swilling beer & wondering how to break into the van.","images":[]},{"seq":13,"place_id":"nice-cote-d-azur-airport-france","lon":7.213746,"lat":43.6598152,"place":"Nice Côte d'Azur Airport, France","date":"2007-07-29","role":"transit_stop","quote":"Tuesday We left at 8 & got the girls to Nice airport for 8.30.","images":[{"src":"media/2007-france-montreuil-reims-provence-malaucene-vaison/B_0123_R_1.webp","w":824,"h":499,"caption":"Alexander Calder","type":"photo"}]},{"seq":14,"place_id":"golfe-juan-france","lon":7.0741016,"lat":43.568826,"place":"Golfe-Juan, France","date":"2007-07-29","role":"main_stop","quote":"We drove to Golf Juan. ... We went to the Boat-makers & saw Peggy, showing off the new Chad Catalogue.","images":[]},{"seq":15,"place_id":"fondation-maeght-saint-paul-de-vence-france","lon":7.1149037,"lat":43.7008677,"place":"Fondation Maeght, Saint-Paul-de-Vence, France","date":"2007-07-29","role":"main_stop","quote":"I was nearly caught photographing too close (resting my hand on the cabinet) by the guards with walkie talkies.","images":[{"src":"media/2007-france-montreuil-reims-provence-malaucene-vaison/B_0124_L_1.webp","w":478,"h":660,"caption":"Joan Miro: Jeune Fille s'évadant 1968","type":"photo"}]},{"seq":16,"place_id":"saint-jeannet-france","lon":6.1241538,"lat":43.9519438,"place":"Saint-Jeannet, France","date":"2007-07-29","role":"overnight_base","quote":"Good showers. Aware of beauty.","images":[{"src":"media/2007-france-montreuil-reims-provence-malaucene-vaison/B_0125_L_1.webp","w":617,"h":900,"caption":"Henri Matisse, Baigneuse dans les roseaux 1952","type":"postcard"},{"src":"media/2007-france-montreuil-reims-provence-malaucene-vaison/B_0125_R_1.webp","w":792,"h":900,"caption":"Vierge à l'enfant 1951 Ceramic panel","type":"photo"}]},{"seq":17,"place_id":"sospel-france","lon":7.4498235,"lat":43.8785647,"place":"Sospel, France","date":"2007-07-29","role":"overnight_base","quote":"We are next to 2 town drunks in a low tent; v. beaten-up face, chain smoking, slumped against a tree","images":[{"src":"media/2007-france-montreuil-reims-provence-malaucene-vaison/B_0127_L_1.webp","w":900,"h":818,"caption":"Villa Ephrussi de Rothschild. Saint-Jean-Cap-Ferrat.","type":"postcard"},{"src":"media/2007-france-montreuil-reims-provence-malaucene-vaison/B_0127_R_1.webp","w":900,"h":677,"caption":"Madame Ephrussi's bedroom","type":"postcard"}]},{"seq":18,"place_id":"cuneo-italy","lon":7.5581367,"lat":44.4580704,"place":"Cuneo, Italy","date":"2007-07-29","role":"main_stop","quote":"Cuneo is still nice - \"style\" Simon said, but dignified.","images":[]},{"seq":19,"place_id":"fenestrelle-italy","lon":7.0495615,"lat":45.0360951,"place":"Fenestrelle, Italy","date":"2007-07-29","role":"overnight_base","quote":"Police arrived at our breakfast table. Once they found out we were English, they were friendly","images":[{"src":"media/2007-france-montreuil-reims-provence-malaucene-vaison/B_0129_L_1.webp","w":900,"h":737,"caption":"Val Chisone: Fortezza di Fenestrelle","type":"postcard"}]},{"seq":20,"place_id":"aussois-france","lon":6.7413988,"lat":45.2275415,"place":"Aussois, France","date":"2007-07-29","role":"overnight_base","quote":"We've parked over a beautiful view.","images":[{"src":"media/2007-france-montreuil-reims-provence-malaucene-vaison/B_0130_L_1.webp","w":900,"h":763,"caption":"AUSSOIS - Vanoise","type":"postcard"},{"src":"media/2007-france-montreuil-reims-provence-malaucene-vaison/B_0130_R_1.webp","w":630,"h":900,"caption":"Our walk — hand-drawn route map","type":"map"}]},{"seq":21,"place_id":"saint-rambert-en-bugey-france","lon":5.439958,"lat":45.948607,"place":"Saint-Rambert-en-Bugey, France","date":"2007-07-29","role":"overnight_base","quote":"The campsite is really lovely, perched high on a valley side, so high that planes fly along the valley below us.","images":[{"src":"media/2007-france-montreuil-reims-provence-malaucene-vaison/B_0131_L_1.webp","w":767,"h":451,"caption":"Eve's chocolate paper from lunch","type":"ticket"}]},{"seq":22,"place_id":"mery-sur-seine-france","lon":3.8913919,"lat":48.5080851,"place":"Méry-sur-Seine, France","date":"2007-07-29","role":"overnight_base","quote":"chicken & potatoes lashed in cream, 2 cheeses, apricot flan, coffee & chocolate & red wine","images":[{"src":"media/2007-france-montreuil-reims-provence-malaucene-vaison/B_0131_R_1.webp","w":900,"h":439,"caption":"hand-drawn terrain profile with directions","type":"sketch"}]},{"seq":23,"place_id":"longpre-les-corps-saints-france","lon":1.9917431,"lat":50.013403,"place":"Longpré-les-Corps-Saints, France","date":"2007-07-29","role":"overnight_base","quote":"we carried stools into the square & watched the painted facade of Amiens cathedral. It was marvellous, lit up like a jewel, or like an Indian temple.","images":[]},{"seq":24,"place_id":"coquelles-eurotunnel","lon":1.8147,"lat":50.9228,"place":"Coquelles (Eurotunnel)","date":"2007-07-29","role":"crossing_terminal","quote":"A super holiday!","images":[{"src":"media/2007-france-montreuil-reims-provence-malaucene-vaison/B_0134_L_1.webp","w":900,"h":683,"caption":"van above St. Tropez. See A.59","type":"photo"}]}]}