{"trip_id":"2012-italy-via-belgium-germany-ulm-bolzano","epigraph":{"quote":"We keep pink Dolomite Mountains on our left. Fruit trees. V. fertile valley."},"moments":[{"seq":2,"place_id":"stalisfield-kent-uk","lon":0.812558,"lat":51.2442782,"place":"Stalisfield, Kent, UK","date":"2012-07-21","role":"overnight_base","quote":"We arrived in Stallisfield again, the same as last year. The pub runs a casino in huts across the road.","images":[]},{"seq":3,"place_id":"folkestone-eurotunnel","lon":1.1156,"lat":51.093,"place":"Folkestone (Eurotunnel)","date":"2012-07-21","role":"crossing_terminal","quote":"Queues at Channel tunnel terminus. Irate English woman from Dutch car at foreign bus. The wait was long + stressful","images":[]},{"seq":4,"place_id":"lille-france","lon":3.0635282,"lat":50.6365654,"place":"Lille, France","date":"2012-07-21","role":"transit_stop","quote":"A man is cooking on a blue gas bottle outside behind the cab, a flame right next to the gas tank.","images":[]},{"seq":5,"place_id":"saint-sauveur-belgium","lon":3.5977459,"lat":50.7061803,"place":"Saint-Sauveur, Belgium","date":"2012-07-21","role":"overnight_base","quote":"lots of windy roads up a hill to St. Seveur. Finally we got there, only to find that it had been closed – Te Coop – for sale.","images":[{"src":"media/2012-italy-via-belgium-germany-ulm-bolzano/B_0192_L_1.webp","w":719,"h":900,"caption":"ULM an der Donau","type":"postcard"}]},{"seq":6,"place_id":"ulm-germany","lon":9.9912458,"lat":48.3984968,"place":"Ulm, Germany","date":"2012-07-21","role":"overnight_base","quote":"Jewish window, Goose poking gargoyle, choir carvings, central altar. Difficult lunch - making decisions in a foreign language.","images":[]},{"seq":7,"place_id":"aitrang-allgau-germany","lon":10.5363115,"lat":47.8177507,"place":"Aitrang, Allgäu, Germany","date":"2012-07-21","role":"overnight_base","quote":"It's well laid out with good clean showers. Art classes - arty things round campsite, Metal work, glass, poems! Lights in showers painted.","images":[]},{"seq":8,"place_id":"bolzano-italy","lon":11.2302129,"lat":46.6559455,"place":"Bolzano, Italy","date":"2012-07-21","role":"transit_stop","quote":"Late morning we pass thro Austria. Past Innsbruck. on to Bolsano. A long day's driving. We keep pink Dolomite Mountains on our left.","images":[]},{"seq":9,"place_id":"lake-garda-italy","lon":10.6861569,"lat":45.6624314,"place":"Lake Garda, Italy","date":"2012-07-21","role":"overnight_base","quote":"We try 4 different campsites, all full. They give us their fresh left-over bread for our supper.","images":[{"src":"media/2012-italy-via-belgium-germany-ulm-bolzano/B_0193_R_1.webp","w":861,"h":773,"caption":"tr@ns:it areatransit.it sticker with campsite photo","type":"ticket"}]},{"seq":10,"place_id":"verona-italy","lon":10.9857377,"lat":45.4424977,"place":"Verona, Italy","date":"2012-07-21","role":"overnight_base","quote":"The van only just scrapes thro. I was anxious 3 roads before the end. Simon only got anxious at the very end.","images":[{"src":"media/2012-italy-via-belgium-germany-ulm-bolzano/B_0194_L_1.webp","w":900,"h":472,"caption":"Verona Opera","type":"photo"},{"src":"media/2012-italy-via-belgium-germany-ulm-bolzano/B_0194_R_1.webp","w":900,"h":709,"caption":"Stage set for Carmen opera","type":"photo"},{"src":"media/2012-italy-via-belgium-germany-ulm-bolzano/B_0195_L_2.webp","w":900,"h":562,"caption":"MUSEO DI CASTELVECCHIO","type":"postcard"}]},{"seq":11,"place_id":"orta-san-giulio-lake-orta-italy","lon":8.394268,"lat":45.8193244,"place":"Orta San Giulio, Lake Orta, Italy","date":"2012-07-21","role":"overnight_base","quote":"Lake Orta is the smallest & least known, only 13K top to bottom. The village & surrounding hill sides are beautiful.","images":[{"src":"media/2012-italy-via-belgium-germany-ulm-bolzano/B_0197_R_1.webp","w":900,"h":455,"caption":"Isola San Giulio aerial view","type":"photo"},{"src":"media/2012-italy-via-belgium-germany-ulm-bolzano/B_0197_R_2.webp","w":751,"h":451,"caption":"Medieval fresco with figures on horseback","type":"photo"},{"src":"media/2012-italy-via-belgium-germany-ulm-bolzano/B_0197_R_3.webp","w":339,"h":370,"caption":"Isola San Julio","type":"photo"}]},{"seq":12,"place_id":"fenis-aosta-valley-italy","lon":7.4943705,"lat":45.7360127,"place":"Fénis, Aosta Valley, Italy","date":"2012-07-21","role":"main_stop","quote":"Fénis Castle had a St George Fresco + lovely stonework. There was a guided tour which we couldn't understand at all: 1) rapid Italian 2) local dialect 3) talking child who shd. have been removed.","images":[{"src":"media/2012-italy-via-belgium-germany-ulm-bolzano/B_0203_R_1.webp","w":889,"h":900,"caption":"Panorama of the Alps, Mont Blanc, Giants Tooth (4014m) from Rute (Helbronner 3470m)","type":"photo"}]},{"seq":13,"place_id":"courmayeur-aosta-valley-italy","lon":6.9461565,"lat":45.8316548,"place":"Courmayeur, Aosta Valley, Italy","date":"2012-07-21","role":"overnight_base","quote":"As we passed a chapel, the man read in Italian \"Thanks be to God for Sister Water\" & everyone roared with laughter.","images":[]},{"seq":14,"place_id":"mont-blanc-tunnel","lon":6.9365212,"lat":45.8323957,"place":"Mont Blanc Tunnel","date":"2012-07-21","role":"crossing_terminal","quote":"Back at the van my hands hardly worked. Camera broken - wet in knapsack. I had to change every garment. Only Simon's shorts wet.","images":[]},{"seq":15,"place_id":"les-gets-france","lon":6.6633354,"lat":46.1550977,"place":"Les Gets, France","date":"2012-07-21","role":"overnight_base","quote":"We have woken, in sunshine, to the most stupendous view of Mont Blanc. Sunshine on white.","images":[{"src":"media/2012-italy-via-belgium-germany-ulm-bolzano/B_0204_R_1.webp","w":739,"h":531,"caption":"le Petit Coq, Plan d'Avoz, 74430 Saint-Jean d'Aulps","type":"postcard"}]},{"seq":16,"place_id":"baume-saint-jean-d-aulps-france","lon":4.5791605,"lat":47.2606245,"place":"Baume, Saint-Jean-d'Aulps, France","date":"2012-07-21","role":"overnight_base","quote":"We are camping just down the road from her at __Baume__ municipal park (€10, instead of the €28 we've been paying recently.)","images":[]},{"seq":17,"place_id":"cluny-france","lon":4.6576358,"lat":46.4339446,"place":"Cluny, France","date":"2012-07-21","role":"overnight_base","quote":"After lunch we set off to Taizé along the Voie Verte. It was a lovely ride, mostly in the shade.","images":[{"src":"media/2012-italy-via-belgium-germany-ulm-bolzano/B_0206_L_1.webp","w":900,"h":878,"caption":"Churry Abbey spire visible from campsite","type":"postcard"},{"src":"media/2012-italy-via-belgium-germany-ulm-bolzano/B_0206_R_1.webp","w":314,"h":900,"caption":"Orange/red foliage tree","type":"photo"},{"src":"media/2012-italy-via-belgium-germany-ulm-bolzano/B_0206_R_2.webp","w":642,"h":900,"caption":"Capital from the choir of Cluny 3, the beekeeper","type":"photo"}]},{"seq":18,"place_id":"montbard-france","lon":4.3373194,"lat":47.6241674,"place":"Montbard, France","date":"2012-07-21","role":"overnight_base","quote":"The pool was amazing, indoor & out. 4 lanes for swimming in a big pool, a flume, a water shoot, battle of bubbles.","images":[]},{"seq":19,"place_id":"montreal-france","lon":0.20161,"lat":43.94948,"place":"Montréal, France","date":"2012-07-21","role":"overnight_base","quote":"We reached the village next to Montreid & camped at __Le Pigeon Blanc__ * * in the village below-","images":[]},{"seq":20,"place_id":"cote-d-opale-france","lon":2.3695964,"lat":51.0365305,"place":"Côte d'Opale, France","date":"2012-07-21","role":"transit_stop","quote":"we passed by St. Gabriel & Cécile & walked along a huge sandy beach - Côte d'Opale","images":[]},{"seq":21,"place_id":"calais-france","lon":1.8538446,"lat":50.9524769,"place":"Calais, France","date":"2012-07-21","role":"crossing_terminal","quote":"Why do northen French families damage campsites near Calais?","images":[]},{"seq":22,"place_id":"dover","lon":1.3266,"lat":51.1264,"place":"Dover","date":"2012-07-21","role":"crossing_terminal","quote":"I did a bit of hand washing to get us back to England.","images":[{"src":"media/2012-italy-via-belgium-germany-ulm-bolzano/B_0208_L_1.webp","w":730,"h":483,"caption":"ABBAYE DE CLUNY","type":"postcard"},{"src":"media/2012-italy-via-belgium-germany-ulm-bolzano/B_0208_L_2.webp","w":730,"h":483,"caption":"BILLET JUMELE","type":"ticket"}]}]}