{"trip_id":"2016-oxford-watlington-london-design-show","epigraph":{"quote":"We could see Arundel Castle in the distance which I first mistook for another cement works. It got nearer & nearer."},"moments":[{"seq":2,"place_id":"oxford-uk","lon":-1.2578499,"lat":51.7520131,"place":"Oxford, UK","date":"2016-07-06","role":"main_stop","quote":"A week ago he beat the nasty woman next door in planning permission for a window.","images":[]},{"seq":3,"place_id":"watlington-oxfordshire-uk","lon":-1.0043458,"lat":51.6451586,"place":"Watlington, Oxfordshire, UK","date":"2016-07-06","role":"transit_stop","quote":"On to deliver lights Watlington & [?send] Hinley.","images":[]},{"seq":4,"place_id":"finsbury-park-london-uk","lon":-0.1064144,"lat":51.5648345,"place":"Finsbury Park, London, UK","date":"2016-07-06","role":"overnight_base","quote":"Our last visit before they move after July 19th.","images":[]},{"seq":5,"place_id":"headley-surrey-uk","lon":-0.2843434,"lat":51.2752115,"place":"Headley, Surrey, UK","date":"2016-07-06","role":"transit_stop","quote":"We drove on & found a carpark next to St. Mary's Headley & Box Hill, a well-kept church, for lunch.","images":[]},{"seq":6,"place_id":"steyning-west-sussex-uk","lon":-0.3302184,"lat":50.8902203,"place":"Steyning, West Sussex, UK","date":"2016-07-06","role":"overnight_base","quote":"We are at a farm above Steyning. We walked 1½ miles to the Chequers where we had good ham & chips but no pudding.","images":[]},{"seq":7,"place_id":"littlehampton-west-sussex-uk","lon":-0.5424424,"lat":50.8095801,"place":"Littlehampton, West Sussex, UK","date":"2016-07-06","role":"overnight_base","quote":"At △ we left for our campsite The Ship & Anchor at Littlehampton ***","images":[{"src":"media/2016-oxford-watlington-london-design-show/B_0269_L_1.webp","w":882,"h":900,"caption":"Arundel R.C. Cathedral. Gate of mercy. Nice church.","type":"postcard"},{"src":"media/2016-oxford-watlington-london-design-show/B_0269_R_1.webp","w":570,"h":499,"caption":"The Chagall window (detail)- see 13 Chichester Cathedral","type":"photo"},{"src":"media/2016-oxford-watlington-london-design-show/B_0268_R_1.webp","w":900,"h":393,"caption":"Prayer of St Richard of Chichester","type":"ticket"}]}]}