{"trip_id":"2021-beverley-teesdale-bowes-killhope-lead-mine","epigraph":{"quote":"We slept with the skylight open + the rain didn't come in - v. pleasant."},"moments":[{"seq":2,"place_id":"beverley-east-yorkshire-uk","lon":-0.4218611,"lat":53.8407564,"place":"Beverley, East Yorkshire, UK","date":"2021-06-01","role":"overnight_base","quote":"Mediaeval parts well-attuned to each other in the present Minster.","images":[{"src":"media/2021-beverley-teesdale-bowes-killhope-lead-mine/B_0348_L_1.webp","w":534,"h":900,"caption":"Beverley Minster West Front + South Side","type":"postcard"}]},{"seq":3,"place_id":"bowes-county-durham-uk","lon":-2.0097533,"lat":54.5178099,"place":"Bowes, County Durham, UK","date":"2021-06-01","role":"main_stop","quote":"We had a super day, chatting & admired their garden & an hour's walk.","images":[]},{"seq":5,"place_id":"killhope-lead-mining-museum-upper-weardale-uk","lon":-2.2715299,"lat":54.7824507,"place":"Killhope Lead Mining Museum, Upper Weardale, UK","date":"2021-06-01","role":"main_stop","quote":"32 men slept in one room. They died in their 40s of \"black spit.\"","images":[{"src":"media/2021-beverley-teesdale-bowes-killhope-lead-mine/B_0349_L_1.webp","w":703,"h":900,"caption":"Killhope's Armstrong Water Wheel, Killhope Lead Mining Museum, Upper Weardale, co Durham","type":"photo"}]},{"seq":6,"place_id":"alston-cumbria-uk","lon":-2.4424386,"lat":54.8248047,"place":"Alston, Cumbria, UK","date":"2021-06-01","role":"transit_stop","quote":"We looked at the shops in Alston & then came on to a campsite near St. John's Chapel.","images":[{"src":"media/2021-beverley-teesdale-bowes-killhope-lead-mine/B_0349_R_1.webp","w":900,"h":677,"caption":"THE GOSPEL SHIP","type":"ticket"}]},{"seq":8,"place_id":"vindolanda-northumberland-uk","lon":-2.3617148,"lat":54.9909104,"place":"Vindolanda, Northumberland, UK","date":"2021-06-01","role":"main_stop","quote":"Most fascinating are the 350 letters left over from the leaving bonfire.","images":[{"src":"media/2021-beverley-teesdale-bowes-killhope-lead-mine/B_0350_R_1.webp","w":900,"h":850,"caption":"Vindolanda writing tablets, Roman birthday invitation","type":"postcard"}]}]}