{
 "birmingham-uk": {
  "place_id": "birmingham-uk",
  "normalized_name": "86 Westfield Road, Edgbaston",
  "display_name": "86 Westfield Road, Edgbaston",
  "lon": -1.9424432,
  "lat": 52.4646734,
  "country": "GB",
  "precision": "exact",
  "curated": true,
  "source": "curated_places.json",
  "original_wordings": [
   "B'ham",
   "Birmingham",
   "Home",
   "home",
   "went home",
   "Westfield Rd",
   "86",
   "came home",
   "Bham",
   "Westfield [?S]",
   "Edgbaston",
   "Harborne",
   "on our way home",
   "George Rd.",
   "George Rd"
  ],
  "ambiguous": false,
  "alternates": [],
  "trips": [
   "1989-dinas-camp-near-harlech-half-term",
   "1989-dinas-camp-near-harlech-july-with",
   "1989-malvern-picnic-kate-jamie-s-farm",
   "1989-northern-tour-leeds-york-hadrian-s",
   "1989-peak-district-weekend-chatsworth-alport-youlgreave",
   "1989-stokesay-castle-shropshire-last-trip-of",
   "1990-ardeche-france-the-wegners-in-w",
   "1990-avening-park-tetbury-autumn-weekend-last",
   "1990-cherry-tree-farm-woodford-halse-canons",
   "1990-di-ian-windmill-hill-avebury-devizes",
   "1990-dinas-welshpool-railway-harlech-barmouth-with",
   "1990-hamperley-long-mynd-north-of-ludlow",
   "1990-hook-norton-wiggington-sibford-late-august",
   "1990-new-forest-beaulieu-chandlers-ford-last",
   "1991-arlingham-st-augustine-s-farm-via",
   "1991-compressed-short-autumn-outings-trimley-frensham",
   "1991-dinas-wales-via-wroxeter-tallybont-whitsun",
   "1991-france-1991-montreuil-rouen-chartres-retrospective",
   "1991-france-loire-auvergne-chartres-chenonceaux-conques",
   "1991-hamperley-shropshire-card-mill",
   "1991-oxford-folly-farm-beckley-easter-chesham",
   "1991-thorpeness-suffolk-week-late-summer-short",
   "1992-beauchamp-concert-weekend-gloucester",
   "1992-beauchamp-house-strings-course",
   "1992-dinas-wales-whitsun-with-harlech",
   "1992-ellesmere-tetchill-new-igloo-tent-shakedown",
   "1992-france-1992-loire-perigord-pont-audemer",
   "1992-lincoln-hartsholme-country-park",
   "1992-peak-district-goyt-valley-buxton-king",
   "1992-short-outings-little-gaddesden-christening-malvern",
   "1992-thorpeness-via-annette-s-thornham-magna",
   "1992-york-jorvik-minster-conisborough-castle",
   "1993-beauchamp-music-course-ashleworth-court",
   "1993-beauchamp-music-course-forest-of-dean",
   "1993-cotswolds-naunton-guiting-power-bourton-on",
   "1993-exmoor-westermill-farm-gawn-polly-s",
   "1993-france-italy-1993-rochester-guincourt-st",
   "1993-italy-switzerland-1993-via-ogbourne-st",
   "1993-manifold-valley-market-drayton-fair-oak",
   "1993-north-wales-rhiwiau-riding-conwy",
   "1993-telford-wales-collect-boys-from-riding",
   "1993-wales-llanbrynmair-barmouth-dinas-festiniog-ardudwy",
   "1994-beauchamp-gloucester-concert-weekends",
   "1994-brecon-beacons-family-weekend-blaensan-ystradfellte",
   "1994-cornwall-upton-festival-st-ives-lizard",
   "1994-france-picardy-champagne-burgundy-laon-troyes",
   "1994-lee-valley-chingford-london-tower-cambridge",
   "1994-lichfield-cannock-chase-day-out",
   "1994-malvern-weekend-shuttlefast-farm",
   "1994-north-wales-llanfairfechan-betws-y-coed",
   "1994-north-wales-roman-steps-rhinog-harlech",
   "1994-stourbridge-weekend-parkland-nr-stourbridge",
   "1994-thorpeness-naseby-family-gathering",
   "1995-belton-in-rutland-northamptonshire-naseby",
   "1995-bromyard-kate-jamie-s-farm-farnham",
   "1995-lake-district-coniston-wast-water-grasmere",
   "1995-lake-district-rydal-coniston-brantwood-eskdale",
   "1995-london-pickett-s-lock-v-a",
   "1995-spain-picos-de-europa-santiago-galicia",
   "1995-stoke-works-droitwich-weekend",
   "1995-wales-upper-cantref-farm-brecon-may",
   "1996-beauchamp-gloucester-john-s-cello-course",
   "1996-beauchamp-music-camp-drop-off-peter",
   "1996-calver-mill-peak-district-tickhill-puppy",
   "1996-doncaster-puppy-appleby-magna-day-trip",
   "1996-farnborough-hall-day-trip",
   "1996-ireland-glendalough-kilkenny-cashel-dingle-blaskets",
   "1996-layer-marney-colchester-mersea-spooner-party",
   "1996-london-chad-coda-centre-fulham-belgium",
   "1996-stamford-bridge-campsite-farm-malvern-william",
   "1996-stratford-tyburn-rd-five-ways-day",
   "1996-thorpeness-suffolk",
   "1997-alfreton-van-cushions-upton-jazz-festival",
   "1997-beauchamp-peter-s-quartet-gus-king",
   "1997-bristol-robert-grimley-s-installation-as",
   "1997-clent-parish-hall-weekend-zoe-s",
   "1997-derbyshire-calke-abbey-day-trip",
   "1997-forest-of-dean-cycling-beauchamp-john",
   "1997-france-1997-amiens-loire-bourges-conques",
   "1997-france-1997-burgundy-home-continuation",
   "1997-london-lee-valley-picketts-lock-greenwich",
   "1997-malmesbury-burton-hill-diana-funeral-weekend",
   "1997-malmesbury-burton-hill-family-weekend",
   "1997-the-anchor-east-of-welland-the",
   "1997-wales-arias-above-harlech-rhinog-porthmadoc",
   "1997-wolverhampton-camping-shop-coven-canal-walk",
   "1998-1998-northamptonshire-naseby-waddanhoe-oundle",
   "1998-abbey-dore-golden-valley-hanley-swan",
   "1998-beauchamp-gloucester-john-s-music-course",
   "1998-cotswolds-long-weekend-bourton-on-the",
   "1998-london-earl-s-court-fatana-lee",
   "1998-malvern-dunar-wales-festiniog-machynlleth",
   "1998-n-wales-drop-offs-conway-rhiwiau",
   "1998-norway-sweden-1998-bergen-fjords-oslo",
   "1998-radnage-oxford-chiltern-weekend-with-david",
   "1999-cambridge-david-debbie-ford-st-john",
   "1999-east-anglia-fakenham-little-snoring-ely",
   "1999-ely-chippenham-robert-upex-s-50th",
   "1999-malvern-peter-s-concert-dinas-brecon",
   "1999-scotland-glasgow-mull-iona-trossachs-st",
   "1999-stapeley-water-gardens-then-london-move",
   "1999-sussex-hove-gravestocks-washington-campsite-bramber",
   "2000-bath-roman-baths-american-museum-limpley",
   "2000-cotswolds-enslow-tackley-thrupp",
   "2000-hay-on-wye-llanthony-priory-skenfrith",
   "2000-hendon-raf-museum-london-courtauld-science",
   "2000-malvern-summer-concert-weekend",
   "2000-peak-district-lathkill-gorge-over-haddon",
   "2001-bath-bath-marina-bristol-cycle-path",
   "2001-cambridge-the-fens-punting-burwell-wicken",
   "2001-flecknoe-bush-hill-farm-oxford-canal",
   "2001-malvern-cambridge-half-term-pick-up",
   "2001-malvern-school-speech-day-peter-s",
   "2001-normandy-etretat-honfleur-d-day-beaches",
   "2001-normandy-pegasus-bridge-caen-out-of",
   "2002-brown-moss-prees-plant-buying-for",
   "2002-clent-day-picnic-in-the-van",
   "2002-france-2002-vendeuil-chaumard-morvan-cluny",
   "2002-france-burgundy-lyon-le-puy-ardeche",
   "2002-malvern-jubilee-lyme-regis-uplyme",
   "2002-peak-district-biddulph-grange-garden-edale",
   "2002-st-david-s-pembroke-solva-pembrokeshire",
   "2003-cambridge-king-s-college-may-ball",
   "2003-cheshire-quarry-bank-mill-manchester-tatton",
   "2003-cornwall-eden-project-fowey",
   "2003-cotswolds-nether-westcote-camp-with-family",
   "2003-germany-2003-bad-honnef-rhine-alsfeld",
   "2003-malvern-school-concert-speech-day-llanafan",
   "2003-manchester-tatton-park-quarry-bank-mill",
   "2003-teesdale-hadrian-s-wall-barnard-castle",
   "2004-bath-weekend-camping-with-david-marina",
   "2004-borough-london-william-bryony-southwark-cathedral",
   "2004-day-trip-to-hanbury-hall-near",
   "2004-kate-jamie-s-farm-south-hyde",
   "2004-malvern-chipping-campden-wales-harlech-machynlleth",
   "2004-malvern-evening-little-gossingham-kate-ed",
   "2004-october-trimpley-the-farm-malvern-john",
   "2004-rye-court-golden-valley-upton-malvern",
   "2004-spain-bilbao-basque-coast-aragon-pyrenees",
   "2005-aston-cantlow-kinwarton-dovecot",
   "2005-east-anglia-duxford-long-melford-lavenham",
   "2005-eastern-england-harrington-cambridge-oxburgh-hall",
   "2005-france-2005-provence-alps-clairvaux-malaucene",
   "2005-france-provence-verdon-drome-vercors-burgundy",
   "2005-kinver-iron-age-fort-rock-houses",
   "2005-malvern-charles-john-concert-knapton-shuckborough",
   "2005-malvern-college-leavers-ball-thorpeness-john",
   "2005-newcastle-trafalgar-day-galloway-museum-arbeia",
   "2006-devon-west-monkton-liverton-dartmoor-widecombe",
   "2006-france-montreuil-bauge-opera-auvergne-millau",
   "2006-hampton-lode-supper-outing-trimley-day",
   "2006-hanbury-bideford-on-avon-24-hour",
   "2006-malvern-charles-summer-concert-weekend",
   "2006-melverley-nesscliffe-shrewsbury-area-church-house",
   "2006-trimpley-r-severn-day-outing-then",
   "2007-france-montreuil-reims-provence-malaucene-vaison",
   "2007-lower-middleton-cheney-stowe-weekend-with",
   "2007-malvern-charles-leavers-the-farm-for",
   "2007-oakington-cambridge-william-bryony-ma-graduation",
   "2007-short-local-van-outings-warwick-uni",
   "2008-day-outings-hampton-lode-severn-valley",
   "2008-defford-malvern-overnight-croome-park-great",
   "2008-hay-on-wye-llanthony-abbey-black",
   "2008-spain-france-2008-bilbao-ferry-burgos",
   "2008-trimpley-hampton-load-day-out-margaret",
   "2009-east-anglia-peckover-house-fotheringay-foulsham",
   "2009-exmoor-weekend-halse-farm-winsford-hill",
   "2009-local-picnic-trimpley-hampton-lode-with",
   "2009-local-tea-evening-outings-hampton-lode",
   "2009-local-tea-outing-bewdley-trimpley-with",
   "2009-northumberland-yorkshire-humber-bridge-bridlington-alnwick",
   "2009-shropshire-borders-enville-long-mynd-hamperley",
   "2010-cotswolds-pangolin-foundry-folly-farm-snowshill",
   "2010-shropshire-wales-ludlow-stokesay-elsich-barns",
   "2010-suffolk-graduation-party-then-belgium-thorpeness",
   "2010-wales-penrhos-brecon-beacons-crickhowell",
   "2011-devon-cornwall-kidderminster-wilsham-barnstaple-padstow",
   "2012-bourton-westwood-farm-much-wenlock-shropshire",
   "2012-day-trip-to-pershore-abbey",
   "2012-devizes-foxhanger-kennet-avon-canal-with",
   "2012-italy-via-belgium-germany-ulm-bolzano",
   "2012-suffolk-annette-s-birthday-party-wingfield",
   "2012-wales-barmouth-mawddach-estuary-craig-wen",
   "2013-ansted-annette-s-executors-visit",
   "2013-france-picardy-burgundy-st-quentin-montbard",
   "2013-hay-on-wye-rodnors-farm-black",
   "2013-south-of-england-standen-capel-petworth",
   "2013-surrey-rudgwick-riverside-farm-mylo-ruby",
   "2013-wales-grawen-cefn-coed-penderyn-visiting",
   "2013-watlington-white-mark-farm-with-william",
   "2014-cotswolds-great-rissington-ashespring-bourton-on",
   "2014-duns-tew-hinton-parva-ashdown-house",
   "2014-felsted-sewards-hall-farm-with-william",
   "2014-france-brittany-les-haies-de-nolettes",
   "2014-norfolk-kenninghall-south-lopham-thetford-forest",
   "2014-wolverley-stourport-with-austin-bike-ride",
   "2015-cambridge-annette-s-memorial-brixworth-market",
   "2015-coughton-court-dovecote-throckmorton",
   "2015-france-laon-vezelay-burgundy-puy-en",
   "2015-naseby-rushton-triangular-lodge-little-staughton",
   "2015-nottingham-hardwick-hall-via-tonge",
   "2015-ross-on-wye-symonds-yat-tintern",
   "2016-eckington-mill-croome-park-worcs",
   "2016-holt-fleet-ombersley-worcs-overnight",
   "2016-inigo-jones-windmill-charlecote-park-day",
   "2016-oxford-watlington-london-design-show",
   "2016-oxford-watlington-london-finsbury-pk-london",
   "2016-wales-elan-valley-rhayader-st-david",
   "2017-bromyard-belmont-abbey-charles-jenny-s",
   "2017-farm-camping-with-john-kay-john",
   "2017-farm-hop-barn-greenacres-axbridge-john",
   "2017-grand-tour-france-italy-reims-cinque",
   "2017-sarehole-keel-drive-tolkien-area-day",
   "2017-short-autumn-outing-via-alcester-supper",
   "2017-telford-berrington-hall-hay-festival",
   "2018-dornston-campsite-st-nicholas-church",
   "2018-farnham-hattie-ramsey-s-wedding",
   "2018-herefordshire-bromyard-eardisland-burton-hall-shobdon",
   "2018-kent-france-ightham-mote-stalisfield-loire",
   "2018-rhayader-elan-valley-wyside-club-site",
   "2018-wales-rhayader-elan-valley-wyside",
   "2018-wales-ross-on-wye-caerleon-penn",
   "2019-alcester-studley-visit-to-studley-campers",
   "2019-barnsley-newark-park-ashen-mains-campsite",
   "2019-dursley-athen-plains-family-gathering-newark",
   "2019-france-provence-burgundy-pesmes-malaucene-senanque",
   "2019-gloucestershire-near-barnsley-newark-park-ashen",
   "2019-northampton-78-derngate-mackintosh-house-via",
   "2019-seamark-butley-priory-sam-iona-s",
   "2019-thorpeness-monig-leo-s-wedding-reception",
   "2019-wales-penn-onn-st-illtud-brecon",
   "2020-cotswolds-burford-bourton-on-the-water",
   "2020-hop-picking-at-the-farm-westfield",
   "2020-monmouth-3-horseshoes-john-kay-eben",
   "2020-new-van-shakedown-wrest-park-aylesbury",
   "2020-ross-on-wye-new-house-farm",
   "2020-the-farm-delivering-furniture-4th-october",
   "2020-the-farm-hop-picking-23rd-august",
   "2020-the-farm-hop-picking-8th-september",
   "2020-thorpeness-via-wimpole-hall",
   "2021-beverley-teesdale-bowes-killhope-lead-mine",
   "2021-chedworth-roman-villa-short-trip-peter",
   "2021-denfurlong-farm-chipping-sodbury-amigos",
   "2021-farm-hop-picking-visits-late-aug",
   "2021-gower-cardiff-dyffryn-llanrhidian-whiteford-bay",
   "2021-harlech-llandanwg-shell-island-lake-vyrnwy",
   "2021-hay-on-wye-racketty-lodge-rutland",
   "2021-imogen-nick-s-wedding-cheshire-jodrell",
   "2021-mersea-tillingham-bradwell-on-sea-hyde",
   "2021-newnham-hops-meeting-pangbourne-meadow-farm",
   "2021-suffolk-coast-run-cottage-hollesley-shingle",
   "2021-thorpeness-summer-holiday-headlands",
   "2021-vindolanda-home-via-middlewich",
   "2022-enfield-church-staffs-day-trip-via",
   "2022-fleet-london-then-continent-france-switzerland",
   "2022-france-switzerland-vitry-le-francois-gray",
   "2022-hay-on-wye-festival-kilpeck",
   "2022-peak-district-tissington-trail-parwich-ebikes",
   "2022-redditch-brook-house-farm-errand-hay",
   "2022-scotland-crail-conta-s-wedding"
  ]
 },
 "dinas-camp-near-harlech-wales": {
  "place_id": "dinas-camp-near-harlech-wales",
  "normalized_name": "Dinas Farm, Llanbedr",
  "display_name": "Dinas Farm, Llanbedr",
  "lon": -4.0645315,
  "lat": 52.842303,
  "country": "GB",
  "precision": "locality",
  "curated": true,
  "source": "curated_places.json",
  "original_wordings": [
   "Dinas Camp near Harlech"
  ],
  "ambiguous": false,
  "alternates": [],
  "trips": [
   "1989-dinas-camp-near-harlech-half-term",
   "1989-dinas-camp-near-harlech-july-with"
  ]
 },
 "harlech-castle-wales": {
  "place_id": "harlech-castle-wales",
  "normalized_name": "Harlech Castle, Wales",
  "display_name": "Harlech Castle, Twtil, Harlech, Gwynedd, Wales, LL46 2UA, United Kingdom",
  "lon": -4.1091431,
  "lat": 52.8599658,
  "country": "gb",
  "precision": "exact",
  "curated": false,
  "source": "nominatim",
  "original_wordings": [
   "Harlech castle",
   "Harlech Castle",
   "Harlech"
  ],
  "ambiguous": false,
  "alternates": [
   {
    "display_name": "Harlech Castle, Harlech, Gwynedd, Wales, United Kingdom",
    "lon": -4.1092368,
    "lat": 52.8601791,
    "type": "undefined/protected_area"
   }
  ],
  "trips": [
   "1989-dinas-camp-near-harlech-half-term",
   "1990-dinas-welshpool-railway-harlech-barmouth-with",
   "1997-wales-arias-above-harlech-rhinog-porthmadoc"
  ]
 },
 "harlech-beach-wales": {
  "place_id": "harlech-beach-wales",
  "normalized_name": "Harlech Beach, Wales",
  "display_name": "Traeth Harlech, Harlech, Talsarnau, Gwynedd, Wales, United Kingdom",
  "lon": -4.1427793,
  "lat": 52.8777975,
  "country": "gb",
  "precision": "locality",
  "curated": false,
  "source": "nominatim",
  "original_wordings": [
   "sandy beach"
  ],
  "ambiguous": false,
  "alternates": [
   {
    "display_name": "Traeth Harlech, Harlech, Llanfair, Gwynedd, Wales, United Kingdom",
    "lon": -4.1229308,
    "lat": 52.853773,
    "type": "undefined/beach"
   },
   {
    "display_name": "Morfa Harlech, Harlech, Gwynedd, Wales, United Kingdom",
    "lon": -4.1441875,
    "lat": 52.8807688,
    "type": "undefined/beach"
   }
  ],
  "trips": [
   "1989-dinas-camp-near-harlech-half-term"
  ]
 },
 "roman-steps-rhinog-mountains-wales": {
  "place_id": "roman-steps-rhinog-mountains-wales",
  "normalized_name": "Roman Steps, Rhinog Mountains, Wales",
  "display_name": "Roman Steps, Aberdovey, Aberdyfi, Gwynedd, Wales, LL35 0PU, United Kingdom",
  "lon": -4.0306229,
  "lat": 52.5456435,
  "country": "gb",
  "precision": "locality",
  "curated": false,
  "source": "nominatim",
  "original_wordings": [
   "the Roman steps"
  ],
  "ambiguous": false,
  "alternates": [
   {
    "display_name": "Roman Steps, Aberdovey, Aberdyfi, Gwynedd, Wales, LL35 0PT, United Kingdom",
    "lon": -4.0336021,
    "lat": 52.5449815,
    "type": "undefined/footway"
   },
   {
    "display_name": "Roman Steps, Llanbedr, Gwynedd, Wales, United Kingdom",
    "lon": -4.0005989,
    "lat": 52.8524455,
    "type": "undefined/footway"
   }
  ],
  "trips": [
   "1989-dinas-camp-near-harlech-half-term"
  ]
 },
 "river-near-harlech-wales": {
  "place_id": "river-near-harlech-wales",
  "normalized_name": "River near Harlech, Wales",
  "display_name": "River Artro, Llanbedr, Gwynedd, Wales, LL45 2HL, United Kingdom, Afon Artro",
  "lon": -4.1058956,
  "lat": 52.8237604,
  "country": "gb",
  "precision": "locality",
  "curated": false,
  "source": "nominatim",
  "original_wordings": [
   "the river"
  ],
  "ambiguous": false,
  "alternates": [
   {
    "display_name": "Afon Artro, Llanbedr, Gwynedd, Wales, United Kingdom, Afon Artro",
    "lon": -4.0947931,
    "lat": 52.8195264,
    "type": "undefined/river"
   },
   {
    "display_name": "Afon Artro, Llanbedr, Gwynedd, Wales, United Kingdom",
    "lon": -4.0658388,
    "lat": 52.8338674,
    "type": "undefined/river"
   }
  ],
  "trips": [
   "1989-dinas-camp-near-harlech-half-term"
  ]
 },
 "centre-for-alternative-technology-machynlleth-wales": {
  "place_id": "centre-for-alternative-technology-machynlleth-wales",
  "normalized_name": "Centre for Alternative Technology, Machynlleth, Wales",
  "display_name": "Centre for Alternative Technology, Quarry Loop, Glantwymyn, Machynlleth, Powys, Wales, SY20 9AZ, United Kingdom",
  "lon": -3.8415307,
  "lat": 52.622548,
  "country": "gb",
  "precision": "locality",
  "curated": false,
  "source": "nominatim",
  "original_wordings": [
   "Alternative Technology Centre",
   "Alternative Technology Centre at Machynlleth"
  ],
  "ambiguous": false,
  "alternates": [],
  "trips": [
   "1989-dinas-camp-near-harlech-july-with",
   "2004-malvern-evening-little-gossingham-kate-ed"
  ]
 },
 "harlech-area-hills-wales": {
  "place_id": "harlech-area-hills-wales",
  "normalized_name": "Harlech area hills, Wales",
  "display_name": null,
  "lon": null,
  "lat": null,
  "country": "gb",
  "precision": "unresolved",
  "curated": false,
  "source": "nominatim",
  "original_wordings": [
   "walk across country"
  ],
  "ambiguous": false,
  "alternates": [],
  "trips": [
   "1989-dinas-camp-near-harlech-july-with"
  ]
 },
 "rhinogydd-valley-near-harlech-wales": {
  "place_id": "rhinogydd-valley-near-harlech-wales",
  "normalized_name": "Rhinogydd valley, near Harlech, Wales",
  "display_name": null,
  "lon": null,
  "lat": null,
  "country": "gb",
  "precision": "unresolved",
  "curated": false,
  "source": "nominatim",
  "original_wordings": [
   "beautiful valley"
  ],
  "ambiguous": false,
  "alternates": [],
  "trips": [
   "1989-dinas-camp-near-harlech-july-with"
  ]
 },
 "porthmadog-wales": {
  "place_id": "porthmadog-wales",
  "normalized_name": "Porthmadog, Wales",
  "display_name": "Porthmadog, Gwynedd, Wales, LL49 9LR, United Kingdom",
  "lon": -4.129694,
  "lat": 52.9256029,
  "country": "gb",
  "precision": "exact",
  "curated": false,
  "source": "nominatim",
  "original_wordings": [
   "Portmadoc",
   "Porthmadoc"
  ],
  "ambiguous": false,
  "alternates": [
   {
    "display_name": "Porthmadog, Railway Place, Porthmadog, Gwynedd, Wales, LL49 9HN, United Kingdom",
    "lon": -4.1353065,
    "lat": 52.930988,
    "type": "undefined/station"
   },
   {
    "display_name": "Porthmadog, Gwynedd, Wales, United Kingdom",
    "lon": -4.1631203,
    "lat": 52.9178912,
    "type": "undefined/administrative"
   }
  ],
  "trips": [
   "1989-dinas-camp-near-harlech-july-with",
   "1997-wales-arias-above-harlech-rhinog-porthmadoc"
  ]
 },
 "malvern-worcestershire-uk": {
  "place_id": "malvern-worcestershire-uk",
  "normalized_name": "Malvern, Worcestershire, UK",
  "display_name": "Malvern, Malvern Hills, Worcestershire, England, WR14 2HX, United Kingdom",
  "lon": -2.3258985,
  "lat": 52.1159559,
  "country": "gb",
  "precision": "exact",
  "curated": false,
  "source": "nominatim",
  "original_wordings": [
   "Malvern",
   "[?Malvern]"
  ],
  "ambiguous": false,
  "alternates": [
   {
    "display_name": "Malvern, Malvern Hills, Worcestershire, England, United Kingdom",
    "lon": -2.3208137,
    "lat": 52.1239674,
    "type": "undefined/administrative"
   }
  ],
  "trips": [
   "1989-malvern-picnic-kate-jamie-s-farm",
   "1992-short-outings-little-gaddesden-christening-malvern",
   "1995-wales-upper-cantref-farm-brecon-may",
   "1998-malvern-dunar-wales-festiniog-machynlleth",
   "2001-malvern-school-speech-day-peter-s",
   "2002-malvern-jubilee-lyme-regis-uplyme",
   "2004-malvern-chipping-campden-wales-harlech-machynlleth",
   "2004-malvern-evening-little-gossingham-kate-ed",
   "2004-october-trimpley-the-farm-malvern-john",
   "2005-malvern-charles-john-concert-knapton-shuckborough",
   "2006-malvern-charles-summer-concert-weekend",
   "2007-malvern-charles-leavers-the-farm-for"
  ]
 },
 "kate-jamie-s-farm": {
  "place_id": "kate-jamie-s-farm",
  "normalized_name": "Brook House Farm, Avenbury",
  "display_name": "Brook House Farm, Avenbury",
  "lon": -2.4936528,
  "lat": 52.1723433,
  "country": "GB",
  "precision": "locality",
  "curated": true,
  "source": "curated_places.json",
  "original_wordings": [
   "Kate & Jamie's farm"
  ],
  "ambiguous": false,
  "alternates": [],
  "trips": [
   "1989-malvern-picnic-kate-jamie-s-farm"
  ]
 },
 "leeds-uk": {
  "place_id": "leeds-uk",
  "normalized_name": "Leeds, UK",
  "display_name": "Leeds, West Yorkshire, England, LS1 6AL, United Kingdom",
  "lon": -1.5437941,
  "lat": 53.7974185,
  "country": "gb",
  "precision": "exact",
  "curated": false,
  "source": "nominatim",
  "original_wordings": [
   "Leeds"
  ],
  "ambiguous": false,
  "alternates": [
   {
    "display_name": "Leeds, West Yorkshire, England, United Kingdom",
    "lon": -1.507363,
    "lat": 53.8223975,
    "type": "undefined/administrative"
   },
   {
    "display_name": "Leeds, Maidstone, Kent, England, United Kingdom",
    "lon": 0.6065163,
    "lat": 51.2472035,
    "type": "undefined/administrative"
   }
  ],
  "trips": [
   "1989-northern-tour-leeds-york-hadrian-s"
  ]
 },
 "bishopthorpe-york-uk": {
  "place_id": "bishopthorpe-york-uk",
  "normalized_name": "Bishopthorpe, York, UK",
  "display_name": "Bishopthorpe, York, York and North Yorkshire, England, United Kingdom",
  "lon": -1.0960342,
  "lat": 53.9225342,
  "country": "gb",
  "precision": "locality",
  "curated": false,
  "source": "nominatim",
  "original_wordings": [
   "Bishopsthorpe"
  ],
  "ambiguous": false,
  "alternates": [],
  "trips": [
   "1989-northern-tour-leeds-york-hadrian-s"
  ]
 },
 "york-uk": {
  "place_id": "york-uk",
  "normalized_name": "York, UK",
  "display_name": "York, York and North Yorkshire, England, United Kingdom",
  "lon": -1.0743052,
  "lat": 53.9656579,
  "country": "gb",
  "precision": "locality",
  "curated": false,
  "source": "nominatim",
  "original_wordings": [
   "York"
  ],
  "ambiguous": false,
  "alternates": [
   {
    "display_name": "York, York and North Yorkshire, England, YO1 8SG, United Kingdom",
    "lon": -1.0815361,
    "lat": 53.9590555,
    "type": "undefined/city"
   }
  ],
  "trips": [
   "1989-northern-tour-leeds-york-hadrian-s",
   "1992-york-jorvik-minster-conisborough-castle",
   "2003-teesdale-hadrian-s-wall-barnard-castle"
  ]
 },
 "stonehaugh-northumberland-uk": {
  "place_id": "stonehaugh-northumberland-uk",
  "normalized_name": "Stonehaugh, Northumberland, UK",
  "display_name": "Stonehaugh, Wark, Northumberland, North East, England, NE48 3DY, United Kingdom",
  "lon": -2.3279848,
  "lat": 55.0792949,
  "country": "gb",
  "precision": "exact",
  "curated": false,
  "source": "nominatim",
  "original_wordings": [
   "Stonehaugh"
  ],
  "ambiguous": false,
  "alternates": [],
  "trips": [
   "1989-northern-tour-leeds-york-hadrian-s"
  ]
 },
 "wood-end-austwick-settle-uk": {
  "place_id": "wood-end-austwick-settle-uk",
  "normalized_name": "Wood End, Austwick, Settle, UK",
  "display_name": "Wood End, Gibraltar, Kempston Rural, Bedford, England, MK43 9BB, United Kingdom",
  "lon": -0.5410762,
  "lat": 52.108061,
  "country": "gb",
  "precision": "exact",
  "curated": false,
  "source": "nominatim",
  "original_wordings": [
   "Wood End campsite, near Austwick, near Settle, Yorkshire"
  ],
  "ambiguous": true,
  "alternates": [
   {
    "display_name": "Wood End, Wood End Lane, Tanworth in Arden CP, Wood End, Stratford-on-Avon, Warwickshire, England, B94 5DY, United Kingdom",
    "lon": -1.844423,
    "lat": 52.3442757,
    "type": "undefined/station"
   },
   {
    "display_name": "Wood End, North Warwickshire, Warwickshire, England, CV9 2QE, United Kingdom",
    "lon": -1.6424757,
    "lat": 52.5824436,
    "type": "undefined/village"
   }
  ],
  "trips": [
   "1989-northern-tour-leeds-york-hadrian-s"
  ]
 },
 "burnley-uk": {
  "place_id": "burnley-uk",
  "normalized_name": "Burnley, UK",
  "display_name": "Burnley, Lancashire, England, United Kingdom",
  "lon": -2.2439196,
  "lat": 53.7907262,
  "country": "gb",
  "precision": "locality",
  "curated": false,
  "source": "nominatim",
  "original_wordings": [
   "Burnley"
  ],
  "ambiguous": false,
  "alternates": [],
  "trips": [
   "1989-northern-tour-leeds-york-hadrian-s"
  ]
 },
 "warburton-greater-manchester-uk": {
  "place_id": "warburton-greater-manchester-uk",
  "normalized_name": "Warburton, Greater Manchester, UK",
  "display_name": "Warburton, Trafford, Greater Manchester, England, United Kingdom",
  "lon": -2.4377666,
  "lat": 53.4008772,
  "country": "gb",
  "precision": "locality",
  "curated": false,
  "source": "nominatim",
  "original_wordings": [
   "Warburton"
  ],
  "ambiguous": false,
  "alternates": [
   {
    "display_name": "Warburton, Trafford, Greater Manchester, England, WA13 9JL, United Kingdom",
    "lon": -2.4566604,
    "lat": 53.4021066,
    "type": "undefined/village"
   }
  ],
  "trips": [
   "1989-northern-tour-leeds-york-hadrian-s"
  ]
 },
 "arley-hall-cheshire-uk": {
  "place_id": "arley-hall-cheshire-uk",
  "normalized_name": "Arley Hall, Cheshire, UK",
  "display_name": "Arley Hall, Back Lane, Arley Green, Aston by Budworth, Cheshire East, England, CW9 6NA, United Kingdom",
  "lon": -2.4888103,
  "lat": 53.3244066,
  "country": "gb",
  "precision": "locality",
  "curated": false,
  "source": "nominatim",
  "original_wordings": [
   "Arley Hall"
  ],
  "ambiguous": false,
  "alternates": [],
  "trips": [
   "1989-northern-tour-leeds-york-hadrian-s"
  ]
 },
 "chesters-roman-fort-hadrian-s-wall-uk": {
  "place_id": "chesters-roman-fort-hadrian-s-wall-uk",
  "normalized_name": "Chesters Roman Fort, Hadrian's Wall, UK",
  "display_name": "Cilurnum, Military Road, Humshaugh, Walwick, Northumberland, North East, England, NE46 4EU, United Kingdom",
  "lon": -2.1395532,
  "lat": 55.0260742,
  "country": "gb",
  "precision": "locality",
  "curated": false,
  "source": "nominatim",
  "original_wordings": [
   "Chesters"
  ],
  "ambiguous": false,
  "alternates": [
   {
    "display_name": "Chesters Roman Fort, Military Road, Humshaugh, Walwick, Northumberland, North East, England, NE46 4EU, United Kingdom",
    "lon": -2.1393784,
    "lat": 55.025772,
    "type": "undefined/attraction"
   }
  ],
  "trips": [
   "1989-northern-tour-leeds-york-hadrian-s"
  ]
 },
 "hexham-northumberland-uk": {
  "place_id": "hexham-northumberland-uk",
  "normalized_name": "Hexham, Northumberland, UK",
  "display_name": "Hexham, Northumberland, North East, England, United Kingdom",
  "lon": -2.1017927,
  "lat": 54.971478,
  "country": "gb",
  "precision": "locality",
  "curated": false,
  "source": "nominatim",
  "original_wordings": [
   "Hexham"
  ],
  "ambiguous": false,
  "alternates": [
   {
    "display_name": "Hexham, Station Forecourt, Hexham, Northumberland, North East, England, NE46 1ET, United Kingdom",
    "lon": -2.0947934,
    "lat": 54.9735335,
    "type": "undefined/station"
   }
  ],
  "trips": [
   "1989-northern-tour-leeds-york-hadrian-s"
  ]
 },
 "vindolanda-roman-fort-northumberland-uk": {
  "place_id": "vindolanda-roman-fort-northumberland-uk",
  "normalized_name": "Vindolanda Roman Fort, Northumberland, UK",
  "display_name": null,
  "lon": null,
  "lat": null,
  "country": "gb",
  "precision": "unresolved",
  "curated": false,
  "source": "nominatim",
  "original_wordings": [
   "Vindolanda"
  ],
  "ambiguous": false,
  "alternates": [],
  "trips": [
   "1989-northern-tour-leeds-york-hadrian-s"
  ]
 },
 "housesteads-roman-fort-hadrian-s-wall-uk": {
  "place_id": "housesteads-roman-fort-hadrian-s-wall-uk",
  "normalized_name": "Housesteads Roman Fort, Hadrian's Wall, UK",
  "display_name": "Vercovicium, Military Road, Bardon Mill, Hexham, Northumberland, North East, England, NE47 6NN, United Kingdom",
  "lon": -2.3302287,
  "lat": 55.013219,
  "country": "gb",
  "precision": "locality",
  "curated": false,
  "source": "nominatim",
  "original_wordings": [
   "Housesteads"
  ],
  "ambiguous": false,
  "alternates": [
   {
    "display_name": "Housesteads Roman Fort, Military Road, Bardon Mill, Hexham, Northumberland, North East, England, NE47 6NN, United Kingdom",
    "lon": -2.3297802,
    "lat": 55.0125424,
    "type": "undefined/archaeological_site"
   }
  ],
  "trips": [
   "1989-northern-tour-leeds-york-hadrian-s"
  ]
 },
 "ribblesdale-north-yorkshire-uk": {
  "place_id": "ribblesdale-north-yorkshire-uk",
  "normalized_name": "Ribblesdale, North Yorkshire, UK",
  "display_name": "Ribblesdale, Horton in Ribblesdale, North Yorkshire, York and North Yorkshire, England, United Kingdom",
  "lon": -2.3079822,
  "lat": 54.1643472,
  "country": "gb",
  "precision": "locality",
  "curated": false,
  "source": "nominatim",
  "original_wordings": [
   "Currick Valley, near Ribblesdale"
  ],
  "ambiguous": false,
  "alternates": [
   {
    "display_name": "Horton in Ribblesdale, North Yorkshire, York and North Yorkshire, England, United Kingdom",
    "lon": -2.2928539,
    "lat": 54.1455978,
    "type": "undefined/administrative"
   }
  ],
  "trips": [
   "1989-northern-tour-leeds-york-hadrian-s"
  ]
 },
 "settle-north-yorkshire-uk": {
  "place_id": "settle-north-yorkshire-uk",
  "normalized_name": "Settle, North Yorkshire, UK",
  "display_name": "Settle, North Yorkshire, York and North Yorkshire, England, United Kingdom",
  "lon": -2.2763604,
  "lat": 54.0690631,
  "country": "gb",
  "precision": "locality",
  "curated": false,
  "source": "nominatim",
  "original_wordings": [
   "Settle"
  ],
  "ambiguous": false,
  "alternates": [
   {
    "display_name": "Settle, Station Road, Greenfoot, Settle, North Yorkshire, York and North Yorkshire, England, BD24 9AA, United Kingdom",
    "lon": -2.2808342,
    "lat": 54.0669551,
    "type": "undefined/station"
   }
  ],
  "trips": [
   "1989-northern-tour-leeds-york-hadrian-s"
  ]
 },
 "hopping-farm-alport-derbyshire-uk": {
  "place_id": "hopping-farm-alport-derbyshire-uk",
  "normalized_name": "Hopping Farm, Alport, Derbyshire, UK",
  "display_name": "Hopping Farm, Youlgreave, Middleton by Youlgrave, Derbyshire Dales, Derbyshire, East Midlands, England, United Kingdom",
  "lon": -1.6947878,
  "lat": 53.1645627,
  "country": "gb",
  "precision": "locality",
  "curated": false,
  "source": "nominatim",
  "original_wordings": [
   "Hopping Farm"
  ],
  "ambiguous": false,
  "alternates": [
   {
    "display_name": "Bakewell Camping & Caravan Club Site, Hopping Lane, Youlgreave, Middleton by Youlgrave, Derbyshire Dales, Derbyshire, East Midlands, England, DE45 1NA, United Kingdom",
    "lon": -1.6926539,
    "lat": 53.1649542,
    "type": "undefined/caravan_site"
   }
  ],
  "trips": [
   "1989-peak-district-weekend-chatsworth-alport-youlgreave"
  ]
 },
 "alport-derbyshire-uk": {
  "place_id": "alport-derbyshire-uk",
  "normalized_name": "Alport, Derbyshire, UK",
  "display_name": "Alport, Derbyshire Dales, Derbyshire, East Midlands, England, DE45 1LG, United Kingdom",
  "lon": -1.6711396,
  "lat": 53.1780949,
  "country": "gb",
  "precision": "exact",
  "curated": false,
  "source": "nominatim",
  "original_wordings": [
   "Alport"
  ],
  "ambiguous": false,
  "alternates": [
   {
    "display_name": "River Alport, High Peak, Derbyshire, East Midlands, England, United Kingdom",
    "lon": -1.8078171,
    "lat": 53.4278541,
    "type": "undefined/river"
   }
  ],
  "trips": [
   "1989-peak-district-weekend-chatsworth-alport-youlgreave"
  ]
 },
 "youlgreave-derbyshire-uk": {
  "place_id": "youlgreave-derbyshire-uk",
  "normalized_name": "Youlgreave, Derbyshire, UK",
  "display_name": "Youlgreave, Derbyshire Dales, Derbyshire, East Midlands, England, United Kingdom",
  "lon": -1.6859938,
  "lat": 53.1754751,
  "country": "gb",
  "precision": "locality",
  "curated": false,
  "source": "nominatim",
  "original_wordings": [
   "Youlgreave"
  ],
  "ambiguous": false,
  "alternates": [],
  "trips": [
   "1989-peak-district-weekend-chatsworth-alport-youlgreave"
  ]
 },
 "chatsworth-house-derbyshire-uk": {
  "place_id": "chatsworth-house-derbyshire-uk",
  "normalized_name": "Chatsworth House, Derbyshire, UK",
  "display_name": "Chatsworth House, Broadwalk, Chatsworth CP, Derbyshire Dales, Derbyshire, East Midlands, England, DE45 1PP, United Kingdom",
  "lon": -1.6113902,
  "lat": 53.2275873,
  "country": "gb",
  "precision": "locality",
  "curated": false,
  "source": "nominatim",
  "original_wordings": [
   "Chatsworth"
  ],
  "ambiguous": false,
  "alternates": [
   {
    "display_name": "Merlin Business Software Ltd, Chatsworth House, Millennium Way, Dunston Technology Park, Newbold, Tapton, Chesterfield, Derbyshire, East Midlands, England, S41 8ND, United Kingdom",
    "lon": -1.4388178,
    "lat": 53.2646228,
    "type": "undefined/commercial"
   },
   {
    "display_name": "Chatsworth House, Broadwalk, Chatsworth CP, Derbyshire Dales, Derbyshire, East Midlands, England, DE45 1PP, United Kingdom",
    "lon": -1.6109617,
    "lat": 53.2293779,
    "type": "undefined/bus_stop"
   }
  ],
  "trips": [
   "1989-peak-district-weekend-chatsworth-alport-youlgreave",
   "1996-calver-mill-peak-district-tickhill-puppy"
  ]
 },
 "astley-abbots-shropshire-uk": {
  "place_id": "astley-abbots-shropshire-uk",
  "normalized_name": "Astley Abbots, Shropshire, UK",
  "display_name": null,
  "lon": null,
  "lat": null,
  "country": "gb",
  "precision": "unresolved",
  "curated": false,
  "source": "nominatim",
  "original_wordings": [
   "Astley Abbots"
  ],
  "ambiguous": false,
  "alternates": [],
  "trips": [
   "1989-stokesay-castle-shropshire-last-trip-of"
  ]
 },
 "stokesay-castle-craven-arms-shropshire-uk": {
  "place_id": "stokesay-castle-craven-arms-shropshire-uk",
  "normalized_name": "Stokesay Castle, Craven Arms, Shropshire, UK",
  "display_name": "Stokesay Castle, Ludlow Road, Whettleton, Stokesay, Craven Arms, Shropshire, England, SY7 9AL, United Kingdom",
  "lon": -2.831314,
  "lat": 52.4302683,
  "country": "gb",
  "precision": "exact",
  "curated": false,
  "source": "nominatim",
  "original_wordings": [
   "Stokesay Castle"
  ],
  "ambiguous": false,
  "alternates": [],
  "trips": [
   "1989-stokesay-castle-shropshire-last-trip-of"
  ]
 },
 "hamperley-shropshire-uk": {
  "place_id": "hamperley-shropshire-uk",
  "normalized_name": "Hamperley, Shropshire, UK",
  "display_name": "Hamperley, Church Stretton, Shropshire, England, SY6 6PT, United Kingdom",
  "lon": -2.8559444,
  "lat": 52.497867,
  "country": "gb",
  "precision": "exact",
  "curated": false,
  "source": "nominatim",
  "original_wordings": [
   "Hamperley",
   "Hamperley, north of Ludlow"
  ],
  "ambiguous": false,
  "alternates": [],
  "trips": [
   "1989-stokesay-castle-shropshire-last-trip-of",
   "1990-hamperley-long-mynd-north-of-ludlow",
   "1991-hamperley-shropshire-card-mill"
  ]
 },
 "ludlow-castle-ludlow-uk": {
  "place_id": "ludlow-castle-ludlow-uk",
  "normalized_name": "Ludlow Castle, Ludlow, UK",
  "display_name": "Ludlow Castle, Events Square, Ludlow, Shropshire, England, SY8 1AY, United Kingdom",
  "lon": -2.7230141,
  "lat": 52.3671823,
  "country": "gb",
  "precision": "exact",
  "curated": false,
  "source": "nominatim",
  "original_wordings": [
   "Ludlow Castle"
  ],
  "ambiguous": false,
  "alternates": [],
  "trips": [
   "1989-stokesay-castle-shropshire-last-trip-of"
  ]
 },
 "ludlow-shropshire-uk": {
  "place_id": "ludlow-shropshire-uk",
  "normalized_name": "Ludlow, Shropshire, UK",
  "display_name": "Ludlow, Shropshire, England, United Kingdom",
  "lon": -2.7193114,
  "lat": 52.3679896,
  "country": "gb",
  "precision": "locality",
  "curated": false,
  "source": "nominatim",
  "original_wordings": [
   "Ludlow"
  ],
  "ambiguous": false,
  "alternates": [
   {
    "display_name": "Ludlow, Station Drive, Ludlow, Shropshire, England, SY8 1PY, United Kingdom",
    "lon": -2.71598,
    "lat": 52.3711007,
    "type": "undefined/station"
   }
  ],
  "trips": [
   "1989-stokesay-castle-shropshire-last-trip-of",
   "2010-shropshire-wales-ludlow-stokesay-elsich-barns"
  ]
 },
 "rugby-uk": {
  "place_id": "rugby-uk",
  "normalized_name": "Rugby, UK",
  "display_name": "Rugby, Warwickshire, England, United Kingdom",
  "lon": -1.2620038,
  "lat": 52.3726682,
  "country": "gb",
  "precision": "locality",
  "curated": false,
  "source": "nominatim",
  "original_wordings": [
   "Rugby"
  ],
  "ambiguous": false,
  "alternates": [],
  "trips": [
   "1990-ardeche-france-the-wegners-in-w"
  ]
 },
 "dartford-crossing-uk": {
  "place_id": "dartford-crossing-uk",
  "normalized_name": "Dartford Crossing, UK",
  "display_name": "Canterbury Way, Stone, Worcester Park Estate, Dartford, Thurrock, Kent, England, DA2 6QP, United Kingdom",
  "lon": 0.2582162,
  "lat": 51.4640337,
  "country": "gb",
  "precision": "locality",
  "curated": false,
  "source": "nominatim",
  "original_wordings": [
   "Dartford Tunnel"
  ],
  "ambiguous": false,
  "alternates": [
   {
    "display_name": "Canterbury Way, Temple Hill, Worcester Park Estate, Dartford, Thurrock, Kent, England, DA2 6QP, United Kingdom",
    "lon": 0.2572308,
    "lat": 51.4645027,
    "type": "undefined/trunk"
   }
  ],
  "trips": [
   "1990-ardeche-france-the-wegners-in-w"
  ]
 },
 "canterbury-uk": {
  "place_id": "canterbury-uk",
  "normalized_name": "Canterbury, UK",
  "display_name": "Canterbury, Kent, England, CT1 2JA, United Kingdom",
  "lon": 1.0802533,
  "lat": 51.2800275,
  "country": "gb",
  "precision": "exact",
  "curated": false,
  "source": "nominatim",
  "original_wordings": [
   "the Edwards' house / Canterbury"
  ],
  "ambiguous": false,
  "alternates": [
   {
    "display_name": "Canterbury, Kent, England, United Kingdom",
    "lon": 1.101191,
    "lat": 51.279854,
    "type": "undefined/administrative"
   }
  ],
  "trips": [
   "1990-ardeche-france-the-wegners-in-w"
  ]
 },
 "dover": {
  "place_id": "dover",
  "normalized_name": "Dover",
  "display_name": "Dover",
  "lon": 1.3266,
  "lat": 51.1264,
  "country": "GB",
  "precision": "exact",
  "curated": true,
  "source": "ferries.json",
  "original_wordings": [
   "Pride of Calais",
   "Dover",
   "crossing"
  ],
  "ambiguous": false,
  "alternates": [],
  "trips": [
   "1990-ardeche-france-the-wegners-in-w",
   "1991-france-1991-montreuil-rouen-chartres-retrospective",
   "1991-france-loire-auvergne-chartres-chenonceaux-conques",
   "2002-france-2002-vendeuil-chaumard-morvan-cluny",
   "2002-france-burgundy-lyon-le-puy-ardeche",
   "2012-italy-via-belgium-germany-ulm-bolzano",
   "2019-france-provence-burgundy-pesmes-malaucene-senanque",
   "2022-france-switzerland-vitry-le-francois-gray"
  ]
 },
 "calais": {
  "place_id": "calais",
  "normalized_name": "Calais",
  "display_name": "Calais",
  "lon": 1.8709,
  "lat": 50.9686,
  "country": "FR",
  "precision": "exact",
  "curated": true,
  "source": "ferries.json",
  "original_wordings": [
   "Calais (Pride of Calais)",
   "Calais"
  ],
  "ambiguous": false,
  "alternates": [],
  "trips": [
   "1990-ardeche-france-the-wegners-in-w",
   "1991-france-loire-auvergne-chartres-chenonceaux-conques",
   "2002-france-burgundy-lyon-le-puy-ardeche"
  ]
 },
 "saint-omer-france": {
  "place_id": "saint-omer-france",
  "normalized_name": "Saint-Omer, France",
  "display_name": "Saint-Omer, Pas-de-Calais, Hauts-de-France, Metropolitan France, 62500, France",
  "lon": 2.2534183,
  "lat": 50.7515771,
  "country": "fr",
  "precision": "locality",
  "curated": false,
  "source": "nominatim",
  "original_wordings": [
   "St. Omer"
  ],
  "ambiguous": true,
  "alternates": [
   {
    "display_name": "Saint-Omer, Caen, Calvados, Normandy, Metropolitan France, 14220, France",
    "lon": -0.4530391,
    "lat": 48.9255751,
    "type": "undefined/administrative"
   },
   {
    "display_name": "Saint-Omer, Pas-de-Calais, Hauts-de-France, Metropolitan France, France",
    "lon": 2.166848,
    "lat": 50.6768332,
    "type": "undefined/administrative"
   }
  ],
  "trips": [
   "1990-ardeche-france-the-wegners-in-w",
   "1994-france-picardy-champagne-burgundy-laon-troyes"
  ]
 },
 "arras-france": {
  "place_id": "arras-france",
  "normalized_name": "Arras, France",
  "display_name": "Arras, Pas-de-Calais, Hauts-de-France, Metropolitan France, 62000, France",
  "lon": 2.7772211,
  "lat": 50.291048,
  "country": "fr",
  "precision": "locality",
  "curated": false,
  "source": "nominatim",
  "original_wordings": [
   "Arras"
  ],
  "ambiguous": false,
  "alternates": [
   {
    "display_name": "Arras, Pas-de-Calais, Hauts-de-France, Metropolitan France, France",
    "lon": 2.5884902,
    "lat": 50.2847897,
    "type": "undefined/administrative"
   },
   {
    "display_name": "Arras-en-Lavedan, Argelès-Gazost, Hautes Pyrenees, Occitania, Metropolitan France, 65400, France",
    "lon": -0.1266788,
    "lat": 42.9919305,
    "type": "undefined/administrative"
   }
  ],
  "trips": [
   "1990-ardeche-france-the-wegners-in-w",
   "2017-grand-tour-france-italy-reims-cinque"
  ]
 },
 "gernicourt-france": {
  "place_id": "gernicourt-france",
  "normalized_name": "Gernicourt, France",
  "display_name": "Gernicourt, Cormicy, Reims, Marne, Grand Est, Metropolitan France, 02160, France",
  "lon": 3.8669382,
  "lat": 49.393715,
  "country": "fr",
  "precision": "locality",
  "curated": false,
  "source": "nominatim",
  "original_wordings": [
   "Gernicourt Campsite"
  ],
  "ambiguous": false,
  "alternates": [
   {
    "display_name": "Gernicourt, Cormicy, Reims, Marne, Grand Est, Metropolitan France, 02160, France",
    "lon": 3.87345,
    "lat": 49.4001,
    "type": "undefined/village"
   }
  ],
  "trips": [
   "1990-ardeche-france-the-wegners-in-w"
  ]
 },
 "reims-france": {
  "place_id": "reims-france",
  "normalized_name": "Reims, France",
  "display_name": "Reims, Marne, Grand Est, Metropolitan France, 51100, France",
  "lon": 4.031926,
  "lat": 49.2577886,
  "country": "fr",
  "precision": "locality",
  "curated": false,
  "source": "nominatim",
  "original_wordings": [
   "Reims Cathedral",
   "Le Rheims / Rheims",
   "Reims"
  ],
  "ambiguous": false,
  "alternates": [
   {
    "display_name": "Reims, Marne, Grand Est, Metropolitan France, France",
    "lon": 4.0803128,
    "lat": 49.2368732,
    "type": "undefined/administrative"
   }
  ],
  "trips": [
   "1990-ardeche-france-the-wegners-in-w",
   "2007-france-montreuil-reims-provence-malaucene-vaison",
   "2013-france-picardy-burgundy-st-quentin-montbard",
   "2017-grand-tour-france-italy-reims-cinque"
  ]
 },
 "clairvaux-abbey-france": {
  "place_id": "clairvaux-abbey-france",
  "normalized_name": "Clairvaux Abbey, France",
  "display_name": null,
  "lon": null,
  "lat": null,
  "country": "fr",
  "precision": "unresolved",
  "curated": false,
  "source": "nominatim",
  "original_wordings": [
   "Clairvaux Abbey",
   "Clairvaux"
  ],
  "ambiguous": false,
  "alternates": [],
  "trips": [
   "1990-ardeche-france-the-wegners-in-w",
   "1994-france-picardy-champagne-burgundy-laon-troyes"
  ]
 },
 "arc-en-barrois-france": {
  "place_id": "arc-en-barrois-france",
  "normalized_name": "Arc-en-Barrois, France",
  "display_name": "Arc-en-Barrois, Chaumont, Haute-Marne, Grand Est, Metropolitan France, 52210, France",
  "lon": 5.0076357,
  "lat": 47.9482191,
  "country": "fr",
  "precision": "locality",
  "curated": false,
  "source": "nominatim",
  "original_wordings": [
   "Arc en Barois"
  ],
  "ambiguous": false,
  "alternates": [],
  "trips": [
   "1990-ardeche-france-the-wegners-in-w"
  ]
 },
 "dijon-france": {
  "place_id": "dijon-france",
  "normalized_name": "Dijon, France",
  "display_name": "Dijon, Côte-d'Or, Bourgogne – Franche-Comté, Metropolitan France, 21000, France",
  "lon": 5.0414701,
  "lat": 47.3215806,
  "country": "fr",
  "precision": "locality",
  "curated": false,
  "source": "nominatim",
  "original_wordings": [
   "Dijon"
  ],
  "ambiguous": false,
  "alternates": [
   {
    "display_name": "Dijon, Côte-d'Or, Bourgogne – Franche-Comté, Metropolitan France, France",
    "lon": 5.0646164,
    "lat": 47.408796,
    "type": "undefined/administrative"
   }
  ],
  "trips": [
   "1990-ardeche-france-the-wegners-in-w"
  ]
 },
 "lyon-france": {
  "place_id": "lyon-france",
  "normalized_name": "Lyon, France",
  "display_name": "Lyon, Métropole de Lyon, Rhône, Auvergne-Rhône-Alpes, Metropolitan France, France",
  "lon": 4.8320114,
  "lat": 45.7578137,
  "country": "fr",
  "precision": "locality",
  "curated": false,
  "source": "nominatim",
  "original_wordings": [
   "lyons",
   "Lyons",
   "Lyons ... Musée des Beaux Arts"
  ],
  "ambiguous": false,
  "alternates": [
   {
    "display_name": "Lyon, Rhône, Auvergne-Rhône-Alpes, Metropolitan France, France",
    "lon": 4.735948,
    "lat": 45.6963425,
    "type": "undefined/administrative"
   }
  ],
  "trips": [
   "1990-ardeche-france-the-wegners-in-w",
   "1993-france-italy-1993-rochester-guincourt-st",
   "1997-france-1997-burgundy-home-continuation",
   "2002-france-burgundy-lyon-le-puy-ardeche",
   "2018-kent-france-ightham-mote-stalisfield-loire"
  ]
 },
 "tournon-sur-rhone-france": {
  "place_id": "tournon-sur-rhone-france",
  "normalized_name": "Tournon-sur-Rhône, France",
  "display_name": "Tournon-sur-Rhône, Ardèche, Auvergne-Rhône-Alpes, Metropolitan France, 07300, France",
  "lon": 4.832852,
  "lat": 45.0675156,
  "country": "fr",
  "precision": "locality",
  "curated": false,
  "source": "nominatim",
  "original_wordings": [
   "Tourion",
   "Tournon"
  ],
  "ambiguous": false,
  "alternates": [
   {
    "display_name": "Tournon-sur-Rhône, Ardèche, Auvergne-Rhône-Alpes, Metropolitan France, France",
    "lon": 4.5905627,
    "lat": 45.0686339,
    "type": "undefined/administrative"
   }
  ],
  "trips": [
   "1990-ardeche-france-the-wegners-in-w",
   "2018-kent-france-ightham-mote-stalisfield-loire"
  ]
 },
 "colombier-le-vieux-france": {
  "place_id": "colombier-le-vieux-france",
  "normalized_name": "Colombier-le-Vieux, France",
  "display_name": "Colombier-le-Vieux, Tournon-sur-Rhône, Ardèche, Auvergne-Rhône-Alpes, Metropolitan France, 07410, France",
  "lon": 4.6975448,
  "lat": 45.0655,
  "country": "fr",
  "precision": "locality",
  "curated": false,
  "source": "nominatim",
  "original_wordings": [
   "Colombiers te Vieux / Doue River"
  ],
  "ambiguous": false,
  "alternates": [],
  "trips": [
   "1990-ardeche-france-the-wegners-in-w"
  ]
 },
 "gerbier-de-jonc-france": {
  "place_id": "gerbier-de-jonc-france",
  "normalized_name": "Gerbier de Jonc, France",
  "display_name": "Gerbier de Jonc, Boulevard Albert 1er, Les Cyprès, Saint-Pierre, Royan, Rochefort, Charente-Maritime, Nouvelle-Aquitaine, Metropolitan France, 17200, France",
  "lon": -1.0189861,
  "lat": 45.6285958,
  "country": "fr",
  "precision": "locality",
  "curated": false,
  "source": "nominatim",
  "original_wordings": [
   "Gerbier de Jonc"
  ],
  "ambiguous": false,
  "alternates": [],
  "trips": [
   "1990-ardeche-france-the-wegners-in-w"
  ]
 },
 "lac-d-issarles-france": {
  "place_id": "lac-d-issarles-france",
  "normalized_name": "Lac d'Issarlès, France",
  "display_name": "Lac d'Issarlès, Le Lac-d'Issarlès, Largentière, Ardèche, Auvergne-Rhône-Alpes, Metropolitan France, 07470, France",
  "lon": 4.0705574,
  "lat": 44.8178518,
  "country": "fr",
  "precision": "locality",
  "curated": false,
  "source": "nominatim",
  "original_wordings": [
   "Lac de Issarlès / Le lac d'Issarlès"
  ],
  "ambiguous": false,
  "alternates": [
   {
    "display_name": "Lac d'Issarlès, Le Lac-d'Issarlès, Largentière, Ardèche, Auvergne-Rhône-Alpes, Metropolitan France, 07470, France",
    "lon": 4.0705289,
    "lat": 44.8179964,
    "type": "undefined/volcano"
   }
  ],
  "trips": [
   "1990-ardeche-france-the-wegners-in-w"
  ]
 },
 "aubenas-france": {
  "place_id": "aubenas-france",
  "normalized_name": "Aubenas, France",
  "display_name": "Aubenas, Largentière, Ardèche, Auvergne-Rhône-Alpes, Metropolitan France, 07200, France",
  "lon": 4.3902399,
  "lat": 44.6205476,
  "country": "fr",
  "precision": "locality",
  "curated": false,
  "source": "nominatim",
  "original_wordings": [
   "Aubenas"
  ],
  "ambiguous": false,
  "alternates": [],
  "trips": [
   "1990-ardeche-france-the-wegners-in-w"
  ]
 },
 "casteljau-france": {
  "place_id": "casteljau-france",
  "normalized_name": "Casteljau, France",
  "display_name": "Casteljau, Berrias-et-Casteljau, Largentière, Ardèche, Auvergne-Rhône-Alpes, Metropolitan France, 07460, France",
  "lon": 4.1963697,
  "lat": 44.4002858,
  "country": "fr",
  "precision": "exact",
  "curated": false,
  "source": "nominatim",
  "original_wordings": [
   "Les Blaches / Casteljou"
  ],
  "ambiguous": false,
  "alternates": [
   {
    "display_name": "Casteljau, Berrias-et-Casteljau, Largentière, Ardèche, Auvergne-Rhône-Alpes, Metropolitan France, 07460, France",
    "lon": 4.207273,
    "lat": 44.4044807,
    "type": "undefined/administrative"
   },
   {
    "display_name": "Berrias-et-Casteljau, Largentière, Ardèche, Auvergne-Rhône-Alpes, Metropolitan France, 07460, France",
    "lon": 4.2101265,
    "lat": 44.3792656,
    "type": "undefined/administrative"
   }
  ],
  "trips": [
   "1990-ardeche-france-the-wegners-in-w"
  ]
 },
 "chambonas-france": {
  "place_id": "chambonas-france",
  "normalized_name": "Chambonas, France",
  "display_name": "Chambonas, Largentière, Ardèche, Auvergne-Rhône-Alpes, Metropolitan France, 07140, France",
  "lon": 4.1290677,
  "lat": 44.416701,
  "country": "fr",
  "precision": "locality",
  "curated": false,
  "source": "nominatim",
  "original_wordings": [
   "Chambonais / Chaubon[as]"
  ],
  "ambiguous": false,
  "alternates": [],
  "trips": [
   "1990-ardeche-france-the-wegners-in-w"
  ]
 },
 "joyeuse-france": {
  "place_id": "joyeuse-france",
  "normalized_name": "Joyeuse, France",
  "display_name": "Joyeuse, Largentière, Ardèche, Auvergne-Rhône-Alpes, Metropolitan France, 07260, France",
  "lon": 4.2414292,
  "lat": 44.4801272,
  "country": "fr",
  "precision": "locality",
  "curated": false,
  "source": "nominatim",
  "original_wordings": [
   "Joyeuse"
  ],
  "ambiguous": true,
  "alternates": [
   {
    "display_name": "Beyrie-sur-Joyeuse, Bayonne, Pyrénées-Atlantiques, Nouvelle-Aquitaine, Metropolitan France, 64120, France",
    "lon": -1.0808195,
    "lat": 43.3123094,
    "type": "undefined/administrative"
   }
  ],
  "trips": [
   "1990-ardeche-france-the-wegners-in-w"
  ]
 },
 "saint-martin-d-ardeche-france": {
  "place_id": "saint-martin-d-ardeche-france",
  "normalized_name": "Saint-Martin-d'Ardèche, France",
  "display_name": "Saint-Martin-d'Ardèche, Privas, Ardèche, Auvergne-Rhône-Alpes, Metropolitan France, 07700, France",
  "lon": 4.5665754,
  "lat": 44.3011856,
  "country": "fr",
  "precision": "locality",
  "curated": false,
  "source": "nominatim",
  "original_wordings": [
   "Révire (campsite); Aiguèze opposite; St. Martial d'Ardèche",
   "S. Martin / St. Martin"
  ],
  "ambiguous": false,
  "alternates": [],
  "trips": [
   "1990-ardeche-france-the-wegners-in-w",
   "2002-france-burgundy-lyon-le-puy-ardeche"
  ]
 },
 "thionville-france": {
  "place_id": "thionville-france",
  "normalized_name": "Thionville, France",
  "display_name": "Thionville, Moselle, Grand Est, Metropolitan France, 57100, France",
  "lon": 6.1675872,
  "lat": 49.3579272,
  "country": "fr",
  "precision": "locality",
  "curated": false,
  "source": "nominatim",
  "original_wordings": [
   "Thionville"
  ],
  "ambiguous": false,
  "alternates": [
   {
    "display_name": "Thionville, Moselle, Grand Est, Metropolitan France, France",
    "lon": 6.2385344,
    "lat": 49.3697643,
    "type": "undefined/administrative"
   }
  ],
  "trips": [
   "1990-ardeche-france-the-wegners-in-w"
  ]
 },
 "trier-germany": {
  "place_id": "trier-germany",
  "normalized_name": "Trier, Germany",
  "display_name": "Trier, Trierweiler, Rhineland-Palatinate, Germany",
  "lon": 6.6441878,
  "lat": 49.7596208,
  "country": "de",
  "precision": "locality",
  "curated": false,
  "source": "nominatim",
  "original_wordings": [
   "[?Trion]"
  ],
  "ambiguous": false,
  "alternates": [],
  "trips": [
   "1990-ardeche-france-the-wegners-in-w"
  ]
 },
 "bad-honnef-germany": {
  "place_id": "bad-honnef-germany",
  "normalized_name": "Bad Honnef, Germany",
  "display_name": "Bad Honnef, Rhein-Sieg-Kreis, North Rhine-Westphalia, 53604, Germany",
  "lon": 7.2272534,
  "lat": 50.6448582,
  "country": "de",
  "precision": "locality",
  "curated": false,
  "source": "nominatim",
  "original_wordings": [
   "Bad Honnef (the Wagners / Wegners)",
   "Bad Honnef"
  ],
  "ambiguous": false,
  "alternates": [],
  "trips": [
   "1990-ardeche-france-the-wegners-in-w",
   "2003-germany-2003-bad-honnef-rhine-alsfeld"
  ]
 },
 "folkestone-uk": {
  "place_id": "folkestone-uk",
  "normalized_name": "Folkestone, UK",
  "display_name": "Folkestone, Folkestone and Hythe District, Kent, England, United Kingdom",
  "lon": 1.1794073,
  "lat": 51.0791335,
  "country": "gb",
  "precision": "locality",
  "curated": false,
  "source": "nominatim",
  "original_wordings": [
   "Folkestone"
  ],
  "ambiguous": false,
  "alternates": [],
  "trips": [
   "1990-ardeche-france-the-wegners-in-w",
   "2010-suffolk-graduation-party-then-belgium-thorpeness"
  ]
 },
 "chassezac-france": {
  "place_id": "chassezac-france",
  "normalized_name": "Chassezac, France",
  "display_name": "Le Chassezac, Ardèche, Auvergne-Rhône-Alpes, Metropolitan France, France",
  "lon": 4.0095097,
  "lat": 44.4565711,
  "country": "fr",
  "precision": "locality",
  "curated": false,
  "source": "nominatim",
  "original_wordings": [
   "Chassezac (5 hour canoes)"
  ],
  "ambiguous": false,
  "alternates": [
   {
    "display_name": "Le Chassezac, Le Grand Bois, Les Salelles, Largentière, Ardèche, Auvergne-Rhône-Alpes, Metropolitan France, 07140, France",
    "lon": 4.099721,
    "lat": 44.4225152,
    "type": "undefined/river"
   },
   {
    "display_name": "Le Chassezac, Combe de la Rameille, Saint-Alban-Auriolles, Largentière, Ardèche, Auvergne-Rhône-Alpes, Metropolitan France, 07120, France",
    "lon": 4.2886301,
    "lat": 44.4156924,
    "type": "undefined/river"
   }
  ],
  "trips": [
   "1990-ardeche-france-the-wegners-in-w"
  ]
 },
 "grotte-de-saint-marcel-d-ardeche-france": {
  "place_id": "grotte-de-saint-marcel-d-ardeche-france",
  "normalized_name": "Grotte de Saint-Marcel-d'Ardèche, France",
  "display_name": "Grotte de Saint-Marcel, D 290, Le Mazet, Bidon, Privas, Ardèche, Auvergne-Rhône-Alpes, Metropolitan France, 07700, France",
  "lon": 4.5414248,
  "lat": 44.3324251,
  "country": "fr",
  "precision": "locality",
  "curated": false,
  "source": "nominatim",
  "original_wordings": [
   "St. Marcel Grottos"
  ],
  "ambiguous": false,
  "alternates": [
   {
    "display_name": "Grotte de Saint-Marcel, D 290, Bidon, Privas, Ardèche, Auvergne-Rhône-Alpes, Metropolitan France, 07700, France",
    "lon": 4.539922,
    "lat": 44.3335571,
    "type": "undefined/guidepost"
   },
   {
    "display_name": "Grotte de Saint-Marcel (entrée naturelle), D 290, Le Mazet, Bidon, Privas, Ardèche, Auvergne-Rhône-Alpes, Metropolitan France, 07700, France",
    "lon": 4.5417501,
    "lat": 44.3269562,
    "type": "undefined/cave_entrance"
   }
  ],
  "trips": [
   "1990-ardeche-france-the-wegners-in-w"
  ]
 },
 "aigueze-france": {
  "place_id": "aigueze-france",
  "normalized_name": "Aiguèze, France",
  "display_name": "Aiguèze, Nîmes, Gard, Occitania, Metropolitan France, 30760, France",
  "lon": 4.5551677,
  "lat": 44.3039508,
  "country": "fr",
  "precision": "locality",
  "curated": false,
  "source": "nominatim",
  "original_wordings": [
   "Aiguèze / Aigueze"
  ],
  "ambiguous": false,
  "alternates": [],
  "trips": [
   "1990-ardeche-france-the-wegners-in-w"
  ]
 },
 "chames-vallon-pont-d-arc-france": {
  "place_id": "chames-vallon-pont-d-arc-france",
  "normalized_name": "Chames (Vallon-Pont-d'Arc), France",
  "display_name": "Chames, Vallon-Pont-d'Arc, Largentière, Ardèche, Auvergne-Rhône-Alpes, Metropolitan France, 07150, France",
  "lon": 4.4275247,
  "lat": 44.3780643,
  "country": "fr",
  "precision": "exact",
  "curated": false,
  "source": "nominatim",
  "original_wordings": [
   "Chames"
  ],
  "ambiguous": false,
  "alternates": [],
  "trips": [
   "1990-ardeche-france-the-wegners-in-w"
  ]
 },
 "pont-d-arc-france": {
  "place_id": "pont-d-arc-france",
  "normalized_name": "Pont d'Arc, France",
  "display_name": "Pont d'Arc, D 1006, Les Resses, Villargondran, Saint-Jean-de-Maurienne, Savoy, Auvergne-Rhône-Alpes, Metropolitan France, 73300, France",
  "lon": 6.3798581,
  "lat": 45.2670676,
  "country": "fr",
  "precision": "locality",
  "curated": false,
  "source": "nominatim",
  "original_wordings": [
   "[?Pont] l'Arc"
  ],
  "ambiguous": false,
  "alternates": [],
  "trips": [
   "1990-ardeche-france-the-wegners-in-w"
  ]
 },
 "drachenfels-siebengebirge-germany": {
  "place_id": "drachenfels-siebengebirge-germany",
  "normalized_name": "Drachenfels (Siebengebirge), Germany",
  "display_name": "Drachenfels, Königswinter, Rhein-Sieg-Kreis, North Rhine-Westphalia, 53639, Germany",
  "lon": 7.2102339,
  "lat": 50.6651818,
  "country": "de",
  "precision": "exact",
  "curated": false,
  "source": "nominatim",
  "original_wordings": [
   "Dragonsfeld / \"7n Hills\""
  ],
  "ambiguous": true,
  "alternates": [
   {
    "display_name": "Drachenfels, Bad Dürkheim, Landkreis Bad Dürkheim, Rhineland-Palatinate, 67098, Germany",
    "lon": 8.0519955,
    "lat": 49.4235882,
    "type": "undefined/peak"
   },
   {
    "display_name": "Drachenfels, Busenberg, Dahner Felsenland, Südwestpfalz, Rhineland-Palatinate, 76891, Germany",
    "lon": 7.8282416,
    "lat": 49.1221957,
    "type": "undefined/peak"
   }
  ],
  "trips": [
   "1990-ardeche-france-the-wegners-in-w"
  ]
 },
 "chalford-gloucestershire-uk": {
  "place_id": "chalford-gloucestershire-uk",
  "normalized_name": "Chalford, Gloucestershire, UK",
  "display_name": "Chalford, Stroud, Gloucestershire, England, United Kingdom",
  "lon": -2.1546482,
  "lat": 51.727065,
  "country": "gb",
  "precision": "locality",
  "curated": false,
  "source": "nominatim",
  "original_wordings": [
   "Chalford"
  ],
  "ambiguous": false,
  "alternates": [
   {
    "display_name": "Chalford, Stroud, Gloucestershire, England, GL6 8DJ, United Kingdom",
    "lon": -2.1483712,
    "lat": 51.7217427,
    "type": "undefined/village"
   },
   {
    "display_name": "Chalford, Chalford Hill, Chalford, Stroud, Gloucestershire, England, United Kingdom",
    "lon": -2.151424,
    "lat": 51.7271025,
    "type": "undefined/residential"
   }
  ],
  "trips": [
   "1990-avening-park-tetbury-autumn-weekend-last"
  ]
 },
 "avening-park-avening-gloucestershire-uk": {
  "place_id": "avening-park-avening-gloucestershire-uk",
  "normalized_name": "Avening Park, Avening, Gloucestershire, UK",
  "display_name": "Avening Park, Woodstock Lane, Avening, Cotswold District, Gloucestershire, England, GL8 8NG, United Kingdom",
  "lon": -2.1826428,
  "lat": 51.6770668,
  "country": "gb",
  "precision": "locality",
  "curated": false,
  "source": "nominatim",
  "original_wordings": [
   "Avening Park, near Tetbury"
  ],
  "ambiguous": false,
  "alternates": [],
  "trips": [
   "1990-avening-park-tetbury-autumn-weekend-last"
  ]
 },
 "avening-gloucestershire-uk": {
  "place_id": "avening-gloucestershire-uk",
  "normalized_name": "Avening, Gloucestershire, UK",
  "display_name": "Avening, Cotswold District, Gloucestershire, England, United Kingdom",
  "lon": -2.1694621,
  "lat": 51.6799413,
  "country": "gb",
  "precision": "locality",
  "curated": false,
  "source": "nominatim",
  "original_wordings": [
   "the village"
  ],
  "ambiguous": false,
  "alternates": [],
  "trips": [
   "1990-avening-park-tetbury-autumn-weekend-last"
  ]
 },
 "gatcombe-park-minchinhampton-gloucestershire-uk": {
  "place_id": "gatcombe-park-minchinhampton-gloucestershire-uk",
  "normalized_name": "Gatcombe Park, Minchinhampton, Gloucestershire, UK",
  "display_name": "Gatcombe Park, Hampton Hill, Nags Head, Minchinhampton, Stroud, Gloucestershire, England, GL8 8SB, United Kingdom",
  "lon": -2.1741799,
  "lat": 51.692331,
  "country": "gb",
  "precision": "locality",
  "curated": false,
  "source": "nominatim",
  "original_wordings": [
   "Princess Anne's house"
  ],
  "ambiguous": false,
  "alternates": [],
  "trips": [
   "1990-avening-park-tetbury-autumn-weekend-last"
  ]
 },
 "long-buckby-uk": {
  "place_id": "long-buckby-uk",
  "normalized_name": "Long Buckby, UK",
  "display_name": "Long Buckby, West Northamptonshire, England, United Kingdom",
  "lon": -1.0806839,
  "lat": 52.3025587,
  "country": "gb",
  "precision": "locality",
  "curated": false,
  "source": "nominatim",
  "original_wordings": [
   "Long Buckby"
  ],
  "ambiguous": false,
  "alternates": [
   {
    "display_name": "Long Buckby, Hickman Drive, Long Buckby, Long Buckby Wharf, Long Buckby, West Northamptonshire, England, NN6 7YZ, United Kingdom",
    "lon": -1.0860558,
    "lat": 52.2944142,
    "type": "undefined/station"
   },
   {
    "display_name": "Long Buckby, Long Buckby Wharf, Long Buckby, West Northamptonshire, England, United Kingdom",
    "lon": -1.0835901,
    "lat": 52.3001296,
    "type": "undefined/residential"
   }
  ],
  "trips": [
   "1990-cherry-tree-farm-woodford-halse-canons"
  ]
 },
 "cherry-tree-farm-woodford-halse-uk": {
  "place_id": "cherry-tree-farm-woodford-halse-uk",
  "normalized_name": "Cherry Tree Farm, Woodford Halse, UK",
  "display_name": "Cherry Tree Farm, Woodford cum Membris, Woodford Halse, West Northamptonshire, England, NN11 3SB, United Kingdom",
  "lon": -1.1871442,
  "lat": 52.1608079,
  "country": "gb",
  "precision": "locality",
  "curated": false,
  "source": "nominatim",
  "original_wordings": [
   "Cherry Tree Farm"
  ],
  "ambiguous": false,
  "alternates": [],
  "trips": [
   "1990-cherry-tree-farm-woodford-halse-canons"
  ]
 },
 "woodford-halse-uk": {
  "place_id": "woodford-halse-uk",
  "normalized_name": "Woodford Halse, UK",
  "display_name": "Woodford Halse, Northamptonshire, England, NN11 3NS, United Kingdom",
  "lon": -1.2066886,
  "lat": 52.1706055,
  "country": "gb",
  "precision": "exact",
  "curated": false,
  "source": "nominatim",
  "original_wordings": [
   "Woodford Halse"
  ],
  "ambiguous": false,
  "alternates": [],
  "trips": [
   "1990-cherry-tree-farm-woodford-halse-canons"
  ]
 },
 "canons-ashby-house-uk": {
  "place_id": "canons-ashby-house-uk",
  "normalized_name": "Canons Ashby House, UK",
  "display_name": "Canons Ashby House, Canons Ashby Road, Canons Ashby, West Northamptonshire, England, NN11 3SD, United Kingdom",
  "lon": -1.1579368,
  "lat": 52.1511071,
  "country": "gb",
  "precision": "locality",
  "curated": false,
  "source": "nominatim",
  "original_wordings": [
   "Canons Ashby"
  ],
  "ambiguous": false,
  "alternates": [
   {
    "display_name": "Canons Ashby House, Canons Ashby, West Northamptonshire, England, United Kingdom",
    "lon": -1.1636797,
    "lat": 52.1518428,
    "type": "undefined/park"
   },
   {
    "display_name": "Canons Ashby House, Canons Ashby, West Northamptonshire, England, United Kingdom",
    "lon": -1.1585347,
    "lat": 52.1506806,
    "type": "undefined/garden"
   }
  ],
  "trips": [
   "1990-cherry-tree-farm-woodford-halse-canons"
  ]
 },
 "norton-wiltshire-uk": {
  "place_id": "norton-wiltshire-uk",
  "normalized_name": "Norton, Wiltshire, UK",
  "display_name": "Norton, Wiltshire, England, United Kingdom",
  "lon": -2.161818,
  "lat": 51.5650551,
  "country": "gb",
  "precision": "locality",
  "curated": false,
  "source": "nominatim",
  "original_wordings": [
   "[?Nortom] [?Combe], [Waterbourne]"
  ],
  "ambiguous": false,
  "alternates": [
   {
    "display_name": "Norton, Wiltshire, England, SN16 0LE, United Kingdom",
    "lon": -2.1659803,
    "lat": 51.5579344,
    "type": "undefined/village"
   },
   {
    "display_name": "Norton Bavant, Wiltshire, England, United Kingdom",
    "lon": -2.1309838,
    "lat": 51.1872183,
    "type": "undefined/administrative"
   }
  ],
  "trips": [
   "1990-di-ian-windmill-hill-avebury-devizes"
  ]
 },
 "windmill-hill-avebury-wiltshire-uk": {
  "place_id": "windmill-hill-avebury-wiltshire-uk",
  "normalized_name": "Windmill Hill, Avebury, Wiltshire, UK",
  "display_name": "Windmill Hill, Horslip Bridge, Beckhampton, Avebury, Wiltshire, England, SN8 1RA, United Kingdom",
  "lon": -1.8761023,
  "lat": 51.4415478,
  "country": "gb",
  "precision": "locality",
  "curated": false,
  "source": "nominatim",
  "original_wordings": [
   "Windmill Hill"
  ],
  "ambiguous": false,
  "alternates": [
   {
    "display_name": "Windmill Hill, Horslip Bridge, Beckhampton, Avebury, Wiltshire, England, SN8 1RA, United Kingdom",
    "lon": -1.8788747,
    "lat": 51.4390631,
    "type": "undefined/board"
   }
  ],
  "trips": [
   "1990-di-ian-windmill-hill-avebury-devizes"
  ]
 },
 "avebury-wiltshire-uk": {
  "place_id": "avebury-wiltshire-uk",
  "normalized_name": "Avebury, Wiltshire, UK",
  "display_name": "Avebury Stone Circle, Beckhampton, Avebury, Wiltshire, England, United Kingdom",
  "lon": -1.8517053,
  "lat": 51.4286099,
  "country": "gb",
  "precision": "locality",
  "curated": false,
  "source": "nominatim",
  "original_wordings": [
   "Avebury"
  ],
  "ambiguous": false,
  "alternates": [
   {
    "display_name": "Avebury, Wiltshire, England, United Kingdom",
    "lon": -1.8597896,
    "lat": 51.4277697,
    "type": "undefined/administrative"
   }
  ],
  "trips": [
   "1990-di-ian-windmill-hill-avebury-devizes"
  ]
 },
 "west-kennet-long-barrow-wiltshire-uk": {
  "place_id": "west-kennet-long-barrow-wiltshire-uk",
  "normalized_name": "West Kennet Long Barrow, Wiltshire, UK",
  "display_name": "West Kennet Long Barrow, Gunsite Road, East Kennett, Beckhampton, East Kennett, Wiltshire, England, SN8 1QF, United Kingdom",
  "lon": -1.8504375,
  "lat": 51.4086455,
  "country": "gb",
  "precision": "locality",
  "curated": false,
  "source": "nominatim",
  "original_wordings": [
   "West Kennet Long Barrow"
  ],
  "ambiguous": false,
  "alternates": [],
  "trips": [
   "1990-di-ian-windmill-hill-avebury-devizes"
  ]
 },
 "devizes-wiltshire-uk": {
  "place_id": "devizes-wiltshire-uk",
  "normalized_name": "Devizes, Wiltshire, UK",
  "display_name": "Devizes, Wiltshire, England, United Kingdom",
  "lon": -1.9958302,
  "lat": 51.3525027,
  "country": "gb",
  "precision": "locality",
  "curated": false,
  "source": "nominatim",
  "original_wordings": [
   "Devizes"
  ],
  "ambiguous": false,
  "alternates": [],
  "trips": [
   "1990-di-ian-windmill-hill-avebury-devizes",
   "2012-devizes-foxhanger-kennet-avon-canal-with"
  ]
 },
 "rowde-wiltshire-uk": {
  "place_id": "rowde-wiltshire-uk",
  "normalized_name": "Rowde, Wiltshire, UK",
  "display_name": "Rowde, Wiltshire, England, United Kingdom",
  "lon": -2.0322353,
  "lat": 51.364057,
  "country": "gb",
  "precision": "locality",
  "curated": false,
  "source": "nominatim",
  "original_wordings": [
   "Lakeside, Rowde"
  ],
  "ambiguous": false,
  "alternates": [
   {
    "display_name": "Rowde, Wiltshire, England, SN10 2NU, United Kingdom",
    "lon": -2.0308173,
    "lat": 51.363318,
    "type": "undefined/village"
   }
  ],
  "trips": [
   "1990-di-ian-windmill-hill-avebury-devizes"
  ]
 },
 "bowden-hill-wiltshire-uk": {
  "place_id": "bowden-hill-wiltshire-uk",
  "normalized_name": "Bowden Hill, Wiltshire, UK",
  "display_name": "Bowden Hill, Wiltshire, England, SN15 2PP, United Kingdom",
  "lon": -2.0940864,
  "lat": 51.4110718,
  "country": "gb",
  "precision": "exact",
  "curated": false,
  "source": "nominatim",
  "original_wordings": [
   "Bowden Hill, St. Anne"
  ],
  "ambiguous": false,
  "alternates": [
   {
    "display_name": "Bowden Hill, Bewley Green, Lacock, Bowden Hill, Wiltshire, England, SN15 2PP, United Kingdom",
    "lon": -2.094185,
    "lat": 51.4112156,
    "type": "undefined/tertiary"
   },
   {
    "display_name": "Bowden Hill, Bewley Green, Lacock, Bowden Hill, Wiltshire, England, SN15 2PL, United Kingdom",
    "lon": -2.103346,
    "lat": 51.4111863,
    "type": "undefined/tertiary"
   }
  ],
  "trips": [
   "1990-di-ian-windmill-hill-avebury-devizes"
  ]
 },
 "lacock-wiltshire-uk": {
  "place_id": "lacock-wiltshire-uk",
  "normalized_name": "Lacock, Wiltshire, UK",
  "display_name": "Lacock, Wiltshire, England, United Kingdom",
  "lon": -2.1193391,
  "lat": 51.4214178,
  "country": "gb",
  "precision": "locality",
  "curated": false,
  "source": "nominatim",
  "original_wordings": [
   "Lacock"
  ],
  "ambiguous": false,
  "alternates": [
   {
    "display_name": "Lacock, Wiltshire, England, SN15 2LG, United Kingdom",
    "lon": -2.1208721,
    "lat": 51.413844,
    "type": "undefined/village"
   }
  ],
  "trips": [
   "1990-di-ian-windmill-hill-avebury-devizes"
  ]
 },
 "bradford-on-avon-wiltshire-uk": {
  "place_id": "bradford-on-avon-wiltshire-uk",
  "normalized_name": "Bradford-on-Avon, Wiltshire, UK",
  "display_name": "Bradford-on-Avon, Wiltshire, England, United Kingdom",
  "lon": -2.2504329,
  "lat": 51.346715,
  "country": "gb",
  "precision": "locality",
  "curated": false,
  "source": "nominatim",
  "original_wordings": [
   "Bradford"
  ],
  "ambiguous": false,
  "alternates": [
   {
    "display_name": "Bradford-on-Avon, Station Approach, Bradford-on-Avon, Wiltshire, England, BA15 1LA, United Kingdom",
    "lon": -2.2527549,
    "lat": 51.344789,
    "type": "undefined/station"
   }
  ],
  "trips": [
   "1990-di-ian-windmill-hill-avebury-devizes",
   "2012-devizes-foxhanger-kennet-avon-canal-with"
  ]
 },
 "stowford-farm-near-trowbridge-wiltshire-uk": {
  "place_id": "stowford-farm-near-trowbridge-wiltshire-uk",
  "normalized_name": "Stowford Farm, near Trowbridge, Wiltshire, UK",
  "display_name": "Stowford Farm, Wingfield, Westwood, Wiltshire, England, United Kingdom",
  "lon": -2.2717327,
  "lat": 51.3180095,
  "country": "gb",
  "precision": "locality",
  "curated": false,
  "source": "nominatim",
  "original_wordings": [
   "Stowford Farm, west of Trowbridge"
  ],
  "ambiguous": false,
  "alternates": [],
  "trips": [
   "1990-di-ian-windmill-hill-avebury-devizes"
  ]
 },
 "bath-somerset-uk": {
  "place_id": "bath-somerset-uk",
  "normalized_name": "Bath, Somerset, UK",
  "display_name": "Bath, Bath and North East Somerset, West of England, England, United Kingdom",
  "lon": -2.3596963,
  "lat": 51.3813864,
  "country": "gb",
  "precision": "exact",
  "curated": false,
  "source": "nominatim",
  "original_wordings": [
   "Bath"
  ],
  "ambiguous": false,
  "alternates": [],
  "trips": [
   "1990-di-ian-windmill-hill-avebury-devizes"
  ]
 },
 "welshpool-wales": {
  "place_id": "welshpool-wales",
  "normalized_name": "Welshpool, Wales",
  "display_name": "Welshpool, Powys, Wales, SY21 7SD, United Kingdom",
  "lon": -3.1474212,
  "lat": 52.6600742,
  "country": "gb",
  "precision": "exact",
  "curated": false,
  "source": "nominatim",
  "original_wordings": [
   "Welshpool"
  ],
  "ambiguous": false,
  "alternates": [
   {
    "display_name": "Welshpool, A483, Bronybuckley, Welshpool, Powys, Wales, SY21 7BG, United Kingdom",
    "lon": -3.1394424,
    "lat": 52.6580323,
    "type": "undefined/station"
   },
   {
    "display_name": "Welshpool, Powys, Wales, United Kingdom",
    "lon": -3.1558492,
    "lat": 52.6626813,
    "type": "undefined/administrative"
   }
  ],
  "trips": [
   "1990-dinas-welshpool-railway-harlech-barmouth-with"
  ]
 },
 "dinas-gwynedd-wales": {
  "place_id": "dinas-gwynedd-wales",
  "normalized_name": "Dinas Farm, Llanbedr",
  "display_name": "Dinas Farm, Llanbedr",
  "lon": -4.0645315,
  "lat": 52.842303,
  "country": "GB",
  "precision": "locality",
  "curated": true,
  "source": "curated_places.json",
  "original_wordings": [
   "Dinas",
   "the campsite"
  ],
  "ambiguous": false,
  "alternates": [],
  "trips": [
   "1990-dinas-welshpool-railway-harlech-barmouth-with",
   "1992-dinas-wales-whitsun-with-harlech",
   "1993-wales-llanbrynmair-barmouth-dinas-festiniog-ardudwy"
  ]
 },
 "llyn-celyn-wales": {
  "place_id": "llyn-celyn-wales",
  "normalized_name": "Llyn Celyn, Wales",
  "display_name": "Llyn Celyn, Gwynedd, Wales, United Kingdom",
  "lon": -3.6997248,
  "lat": 52.9511132,
  "country": "gb",
  "precision": "locality",
  "curated": false,
  "source": "nominatim",
  "original_wordings": [
   "Celyn reservoir"
  ],
  "ambiguous": false,
  "alternates": [],
  "trips": [
   "1990-dinas-welshpool-railway-harlech-barmouth-with"
  ]
 },
 "pistyll-rhaeadr-wales": {
  "place_id": "pistyll-rhaeadr-wales",
  "normalized_name": "Pistyll Rhaeadr, Wales",
  "display_name": "Pistyll Rhaeadr, Powys, Wales, SY10 0BZ, United Kingdom",
  "lon": -3.3787945,
  "lat": 52.8550952,
  "country": "gb",
  "precision": "locality",
  "curated": false,
  "source": "nominatim",
  "original_wordings": [
   "the highest waterfall in Wales"
  ],
  "ambiguous": false,
  "alternates": [],
  "trips": [
   "1990-dinas-welshpool-railway-harlech-barmouth-with"
  ]
 },
 "barmouth-wales": {
  "place_id": "barmouth-wales",
  "normalized_name": "Barmouth, Wales",
  "display_name": "Barmouth, Gwynedd, Wales, LL42 1DR, United Kingdom",
  "lon": -4.0535692,
  "lat": 52.7210389,
  "country": "gb",
  "precision": "exact",
  "curated": false,
  "source": "nominatim",
  "original_wordings": [
   "Barmouth"
  ],
  "ambiguous": false,
  "alternates": [
   {
    "display_name": "Barmouth, Marine Parade, Barmouth, Gwynedd, Wales, LL42 1NA, United Kingdom",
    "lon": -4.0567929,
    "lat": 52.7224433,
    "type": "undefined/station"
   },
   {
    "display_name": "Barmouth, Gwynedd, Wales, United Kingdom",
    "lon": -4.0354068,
    "lat": 52.7388205,
    "type": "undefined/administrative"
   }
  ],
  "trips": [
   "1990-dinas-welshpool-railway-harlech-barmouth-with",
   "2021-harlech-llandanwg-shell-island-lake-vyrnwy"
  ]
 },
 "long-mynd-shropshire-uk": {
  "place_id": "long-mynd-shropshire-uk",
  "normalized_name": "Long Mynd, Shropshire, UK",
  "display_name": "Long Mynd, Church Stretton, Shropshire, England, United Kingdom",
  "lon": -2.8470763,
  "lat": 52.5312118,
  "country": "gb",
  "precision": "locality",
  "curated": false,
  "source": "nominatim",
  "original_wordings": [
   "Long Mynd"
  ],
  "ambiguous": false,
  "alternates": [],
  "trips": [
   "1990-hamperley-long-mynd-north-of-ludlow"
  ]
 },
 "st-michael-s-church-ratlinghope-shropshire-uk": {
  "place_id": "st-michael-s-church-ratlinghope-shropshire-uk",
  "normalized_name": "St Michael's Church, Ratlinghope, Shropshire, UK",
  "display_name": "St Michael's Church, A495, Ellesmere Urban, Ellesmere, Shropshire, England, SY12 0PD, United Kingdom",
  "lon": -2.8804465,
  "lat": 52.901562,
  "country": "gb",
  "precision": "locality",
  "curated": false,
  "source": "nominatim",
  "original_wordings": [
   "St. Michael's church"
  ],
  "ambiguous": false,
  "alternates": [],
  "trips": [
   "1990-hamperley-long-mynd-north-of-ludlow"
  ]
 },
 "boiling-well-long-mynd-shropshire-uk": {
  "place_id": "boiling-well-long-mynd-shropshire-uk",
  "normalized_name": "Boiling Well, Long Mynd, Shropshire, UK",
  "display_name": "Boiling Well, Church Stretton, Shropshire, England, United Kingdom",
  "lon": -2.8548173,
  "lat": 52.5461946,
  "country": "gb",
  "precision": "exact",
  "curated": false,
  "source": "nominatim",
  "original_wordings": [
   "Boiling Well"
  ],
  "ambiguous": false,
  "alternates": [
   {
    "display_name": "Boiling Well, Coronation Avenue, Ludlow, Shropshire, England, SY8 1DN, United Kingdom",
    "lon": -2.7233867,
    "lat": 52.37283,
    "type": "undefined/spring"
   }
  ],
  "trips": [
   "1990-hamperley-long-mynd-north-of-ludlow"
  ]
 },
 "hook-norton-oxfordshire-uk": {
  "place_id": "hook-norton-oxfordshire-uk",
  "normalized_name": "Hook Norton, Oxfordshire, UK",
  "display_name": "Hook Norton, Cherwell District, Oxfordshire, England, United Kingdom",
  "lon": -1.4822644,
  "lat": 51.9939848,
  "country": "gb",
  "precision": "locality",
  "curated": false,
  "source": "nominatim",
  "original_wordings": [
   "Hook Norton"
  ],
  "ambiguous": false,
  "alternates": [],
  "trips": [
   "1990-hook-norton-wiggington-sibford-late-august"
  ]
 },
 "wigginton-oxfordshire-uk": {
  "place_id": "wigginton-oxfordshire-uk",
  "normalized_name": "Wigginton, Oxfordshire, UK",
  "display_name": "Wigginton, Cherwell District, Oxfordshire, England, United Kingdom",
  "lon": -1.4348193,
  "lat": 51.997198,
  "country": "gb",
  "precision": "locality",
  "curated": false,
  "source": "nominatim",
  "original_wordings": [
   "Wiggington"
  ],
  "ambiguous": false,
  "alternates": [],
  "trips": [
   "1990-hook-norton-wiggington-sibford-late-august"
  ]
 },
 "sibford-gower-oxfordshire-uk": {
  "place_id": "sibford-gower-oxfordshire-uk",
  "normalized_name": "Sibford Gower, Oxfordshire, UK",
  "display_name": "Sibford Gower, Cherwell District, Oxfordshire, England, United Kingdom",
  "lon": -1.4876076,
  "lat": 52.0382828,
  "country": "gb",
  "precision": "locality",
  "curated": false,
  "source": "nominatim",
  "original_wordings": [
   "Sibford"
  ],
  "ambiguous": false,
  "alternates": [],
  "trips": [
   "1990-hook-norton-wiggington-sibford-late-august"
  ]
 },
 "st-giles-church-wigginton-oxfordshire-uk": {
  "place_id": "st-giles-church-wigginton-oxfordshire-uk",
  "normalized_name": "St Giles' Church, Wigginton, Oxfordshire, UK",
  "display_name": "Saint Giles, School Lane, Wigginton, South Newington, Cherwell District, Oxfordshire, England, OX15 4JY, United Kingdom",
  "lon": -1.4322954,
  "lat": 51.9966266,
  "country": "gb",
  "precision": "locality",
  "curated": false,
  "source": "nominatim",
  "original_wordings": [
   "Wiggington"
  ],
  "ambiguous": false,
  "alternates": [],
  "trips": [
   "1990-hook-norton-wiggington-sibford-late-august"
  ]
 },
 "jean-and-frank-hammond-location-unknown": {
  "place_id": "jean-and-frank-hammond-location-unknown",
  "normalized_name": "Jean and Frank Hammond (location unknown)",
  "display_name": null,
  "lon": null,
  "lat": null,
  "country": "gb",
  "precision": "unresolved",
  "curated": false,
  "source": "nominatim",
  "original_wordings": [
   "Jean + Frank Hammond"
  ],
  "ambiguous": false,
  "alternates": [],
  "trips": [
   "1990-new-forest-beaulieu-chandlers-ford-last"
  ]
 },
 "lyndhurst-hampshire-uk": {
  "place_id": "lyndhurst-hampshire-uk",
  "normalized_name": "Lyndhurst, Hampshire, UK",
  "display_name": "Lyndhurst, Emery Down, New Forest, Hampshire, England, United Kingdom",
  "lon": -1.5748436,
  "lat": 50.8727657,
  "country": "gb",
  "precision": "locality",
  "curated": false,
  "source": "nominatim",
  "original_wordings": [
   "Lyndhurst"
  ],
  "ambiguous": false,
  "alternates": [],
  "trips": [
   "1990-new-forest-beaulieu-chandlers-ford-last"
  ]
 },
 "roundhill-campsite-new-forest-uk": {
  "place_id": "roundhill-campsite-new-forest-uk",
  "normalized_name": "Roundhill Campsite, New Forest, UK",
  "display_name": null,
  "lon": null,
  "lat": null,
  "country": "gb",
  "precision": "unresolved",
  "curated": false,
  "source": "nominatim",
  "original_wordings": [
   "Roundhill"
  ],
  "ambiguous": false,
  "alternates": [],
  "trips": [
   "1990-new-forest-beaulieu-chandlers-ford-last"
  ]
 },
 "lady-cross-new-forest-uk": {
  "place_id": "lady-cross-new-forest-uk",
  "normalized_name": "Lady Cross, New Forest, UK",
  "display_name": "Lady Cross, A628, Dunford, Barnsley, South Yorkshire, England, United Kingdom",
  "lon": -1.7776383,
  "lat": 53.4941627,
  "country": "gb",
  "precision": "locality",
  "curated": false,
  "source": "nominatim",
  "original_wordings": [
   "LadyCross"
  ],
  "ambiguous": false,
  "alternates": [],
  "trips": [
   "1990-new-forest-beaulieu-chandlers-ford-last"
  ]
 },
 "beaulieu-hampshire-uk": {
  "place_id": "beaulieu-hampshire-uk",
  "normalized_name": "Beaulieu, Hampshire, UK",
  "display_name": "Beaulieu, New Forest, Hampshire, England, United Kingdom",
  "lon": -1.4401199,
  "lat": 50.7997596,
  "country": "gb",
  "precision": "locality",
  "curated": false,
  "source": "nominatim",
  "original_wordings": [
   "Beaulieu"
  ],
  "ambiguous": false,
  "alternates": [
   {
    "display_name": "Beaulieu, New Forest, Hampshire, England, SO42 7ZL, United Kingdom",
    "lon": -1.4519156,
    "lat": 50.8184137,
    "type": "undefined/village"
   },
   {
    "display_name": "National Motor Museum, Mill Pond Walk, Beaulieu, New Forest, Hampshire, England, SO42 7ZN, United Kingdom",
    "lon": -1.4536244,
    "lat": 50.8230349,
    "type": "undefined/yes"
   }
  ],
  "trips": [
   "1990-new-forest-beaulieu-chandlers-ford-last"
  ]
 },
 "setthornes-campsite-new-forest-uk": {
  "place_id": "setthornes-campsite-new-forest-uk",
  "normalized_name": "Setthornes Campsite, New Forest, UK",
  "display_name": null,
  "lon": null,
  "lat": null,
  "country": "gb",
  "precision": "unresolved",
  "curated": false,
  "source": "nominatim",
  "original_wordings": [
   "Setthornes"
  ],
  "ambiguous": false,
  "alternates": [],
  "trips": [
   "1990-new-forest-beaulieu-chandlers-ford-last"
  ]
 },
 "lymington-hampshire-uk": {
  "place_id": "lymington-hampshire-uk",
  "normalized_name": "Lymington, Hampshire, UK",
  "display_name": "Lymington, Lymington and Pennington, Walhampton, New Forest, Hampshire, England, United Kingdom",
  "lon": -1.5426885,
  "lat": 50.7583753,
  "country": "gb",
  "precision": "exact",
  "curated": false,
  "source": "nominatim",
  "original_wordings": [
   "Lymington"
  ],
  "ambiguous": false,
  "alternates": [],
  "trips": [
   "1990-new-forest-beaulieu-chandlers-ford-last"
  ]
 },
 "chandler-s-ford-hampshire-uk": {
  "place_id": "chandler-s-ford-hampshire-uk",
  "normalized_name": "Chandler's Ford, Hampshire, UK",
  "display_name": "Chandler's Ford, Eastleigh, Hampshire, England, United Kingdom",
  "lon": -1.3833123,
  "lat": 50.9828402,
  "country": "gb",
  "precision": "locality",
  "curated": false,
  "source": "nominatim",
  "original_wordings": [
   "Chandlers Ford"
  ],
  "ambiguous": false,
  "alternates": [
   {
    "display_name": "Chandler's Ford, Station Lane, Millers Dale South, Chandler's Ford, Eastleigh, Hampshire, England, SO53 4DW, United Kingdom",
    "lon": -1.3853639,
    "lat": 50.983771,
    "type": "undefined/platform"
   },
   {
    "display_name": "Chandler's Ford, Station Lane, Millers Dale South, Chandler's Ford, Eastleigh, Hampshire, England, SO53 4DE, United Kingdom",
    "lon": -1.3848946,
    "lat": 50.9834549,
    "type": "undefined/station"
   }
  ],
  "trips": [
   "1990-new-forest-beaulieu-chandlers-ford-last"
  ]
 },
 "cotswolds-uk": {
  "place_id": "cotswolds-uk",
  "normalized_name": "Cotswolds, UK",
  "display_name": "Cotswolds, UK (anchor: Stow-on-the-Wold)",
  "lon": -1.725,
  "lat": 51.93,
  "country": "GB",
  "precision": "region_anchor",
  "curated": true,
  "source": "region_anchors.json",
  "original_wordings": [
   "the Cotswolds"
  ],
  "ambiguous": false,
  "alternates": [],
  "trips": [
   "1990-new-forest-beaulieu-chandlers-ford-last"
  ]
 },
 "gloucester-uk": {
  "place_id": "gloucester-uk",
  "normalized_name": "Gloucester, UK",
  "display_name": "Gloucester, Gloucestershire, England, GL1 2AP, United Kingdom",
  "lon": -2.2458192,
  "lat": 51.8653705,
  "country": "gb",
  "precision": "exact",
  "curated": false,
  "source": "nominatim",
  "original_wordings": [
   "Glouces[ter]",
   "Gloucester"
  ],
  "ambiguous": false,
  "alternates": [
   {
    "display_name": "Gloucester, Gloucestershire, England, United Kingdom",
    "lon": -2.2330472,
    "lat": 51.8464268,
    "type": "undefined/administrative"
   }
  ],
  "trips": [
   "1991-arlingham-st-augustine-s-farm-via",
   "1998-beauchamp-gloucester-john-s-music-course"
  ]
 },
 "beauchamp-house-gloucestershire-uk": {
  "place_id": "beauchamp-house-gloucestershire-uk",
  "normalized_name": "Beauchamp House, Gloucestershire, UK",
  "display_name": "Beauchamp House, 1-24, Greyfriars Road, Spon End, Coventry, West Midlands, England, CV1 3RX, United Kingdom",
  "lon": -1.5144268,
  "lat": 52.4051101,
  "country": "gb",
  "precision": "locality",
  "curated": false,
  "source": "nominatim",
  "original_wordings": [
   "Beauchamp House",
   "Beauchamp"
  ],
  "ambiguous": false,
  "alternates": [
   {
    "display_name": "Beauchamp House, 47-67, Greyfriars Road, Spon End, Coventry, West Midlands, England, CV1 3RX, United Kingdom",
    "lon": -1.514153,
    "lat": 52.4055838,
    "type": "undefined/house"
   },
   {
    "display_name": "Beauchamp House, 25-46, Greyfriars Road, Spon End, Coventry, West Midlands, England, CV1 3RX, United Kingdom",
    "lon": -1.5142018,
    "lat": 52.4052622,
    "type": "undefined/house"
   }
  ],
  "trips": [
   "1991-arlingham-st-augustine-s-farm-via",
   "1992-beauchamp-concert-weekend-gloucester",
   "1993-beauchamp-music-course-ashleworth-court",
   "1996-beauchamp-music-camp-drop-off-peter",
   "1997-beauchamp-peter-s-quartet-gus-king"
  ]
 },
 "arlingham-gloucestershire-uk": {
  "place_id": "arlingham-gloucestershire-uk",
  "normalized_name": "Arlingham, Gloucestershire, UK",
  "display_name": "Arlingham, Stroud, Gloucestershire, England, United Kingdom",
  "lon": -2.4182218,
  "lat": 51.7981781,
  "country": "gb",
  "precision": "locality",
  "curated": false,
  "source": "nominatim",
  "original_wordings": [
   "St. Augustine's working farm, Arlingham"
  ],
  "ambiguous": false,
  "alternates": [
   {
    "display_name": "Arlingham, Stroud, Gloucestershire, England, GL2 7JN, United Kingdom",
    "lon": -2.4239977,
    "lat": 51.7966226,
    "type": "undefined/village"
   }
  ],
  "trips": [
   "1991-arlingham-st-augustine-s-farm-via"
  ]
 },
 "trimley-suffolk-uk": {
  "place_id": "trimley-suffolk-uk",
  "normalized_name": "Trimley, Suffolk, UK",
  "display_name": "Trimley, Station Yard, Trimley St Mary, Walton, East Suffolk, Suffolk, England, IP11 0UB, United Kingdom",
  "lon": 1.3194153,
  "lat": 51.9766523,
  "country": "gb",
  "precision": "locality",
  "curated": false,
  "source": "nominatim",
  "original_wordings": [
   "[?Trimley]",
   "Trimley"
  ],
  "ambiguous": false,
  "alternates": [
   {
    "display_name": "Trimley, A14, Thorpe Common, Trimley St Martin, East Suffolk, Suffolk, England, IP11 0RE, United Kingdom",
    "lon": 1.3148432,
    "lat": 51.9938718,
    "type": "undefined/motorway_junction"
   },
   {
    "display_name": "Trimley, A14, Trimley St Mary, Walton, East Suffolk, Suffolk, England, IP11 0YZ, United Kingdom",
    "lon": 1.3219993,
    "lat": 51.9853626,
    "type": "undefined/motorway_junction"
   }
  ],
  "trips": [
   "1991-compressed-short-autumn-outings-trimley-frensham",
   "2006-hampton-lode-supper-outing-trimley-day"
  ]
 },
 "frensham-surrey-uk": {
  "place_id": "frensham-surrey-uk",
  "normalized_name": "Frensham, Surrey, UK",
  "display_name": "Frensham, Waverley, Surrey, England, United Kingdom",
  "lon": -0.7774027,
  "lat": 51.1598756,
  "country": "gb",
  "precision": "locality",
  "curated": false,
  "source": "nominatim",
  "original_wordings": [
   "Frensham"
  ],
  "ambiguous": false,
  "alternates": [
   {
    "display_name": "Frensham, Waverley, Surrey, England, GU10 3DZ, United Kingdom",
    "lon": -0.7951234,
    "lat": 51.1654982,
    "type": "undefined/village"
   }
  ],
  "trips": [
   "1991-compressed-short-autumn-outings-trimley-frensham"
  ]
 },
 "wroxeter-shropshire-uk": {
  "place_id": "wroxeter-shropshire-uk",
  "normalized_name": "Wroxeter, Shropshire, UK",
  "display_name": "Wroxeter, Shropshire, England, SY5 6PH, United Kingdom",
  "lon": -2.6466273,
  "lat": 52.6713355,
  "country": "gb",
  "precision": "exact",
  "curated": false,
  "source": "nominatim",
  "original_wordings": [
   "Wroxeter"
  ],
  "ambiguous": false,
  "alternates": [],
  "trips": [
   "1991-dinas-wales-via-wroxeter-tallybont-whitsun"
  ]
 },
 "dinas-near-llanbedr-gwynedd-wales-uk": {
  "place_id": "dinas-near-llanbedr-gwynedd-wales-uk",
  "normalized_name": "Dinas Farm, Llanbedr",
  "display_name": "Dinas Farm, Llanbedr",
  "lon": -4.0645315,
  "lat": 52.842303,
  "country": "GB",
  "precision": "locality",
  "curated": true,
  "source": "curated_places.json",
  "original_wordings": [
   "Dinas"
  ],
  "ambiguous": false,
  "alternates": [],
  "trips": [
   "1991-dinas-wales-via-wroxeter-tallybont-whitsun"
  ]
 },
 "tal-y-bont-gwynedd-wales-uk": {
  "place_id": "tal-y-bont-gwynedd-wales-uk",
  "normalized_name": "Tal-y-bont, Gwynedd, Wales, UK",
  "display_name": "Tal-y-bont, Gwynedd, Wales, LL57 3YS, United Kingdom",
  "lon": -4.0913179,
  "lat": 53.2150222,
  "country": "gb",
  "precision": "exact",
  "curated": false,
  "source": "nominatim",
  "original_wordings": [
   "Tallybont"
  ],
  "ambiguous": false,
  "alternates": [
   {
    "display_name": "Talybont, Ffordd Glan Mor, Gwenfain, Dyffryn Ardudwy, Tal-y-bont, Gwynedd, Wales, LL43 2AR, United Kingdom",
    "lon": -4.0970877,
    "lat": 52.7729002,
    "type": "undefined/station"
   },
   {
    "display_name": "Tal-y-bont, Gwynedd, Wales, LL43 2AW, United Kingdom",
    "lon": -4.0909698,
    "lat": 52.7744422,
    "type": "undefined/village"
   }
  ],
  "trips": [
   "1991-dinas-wales-via-wroxeter-tallybont-whitsun"
  ]
 },
 "beach-near-llanbedr-gwynedd-wales-uk": {
  "place_id": "beach-near-llanbedr-gwynedd-wales-uk",
  "normalized_name": "beach near Llanbedr, Gwynedd, Wales, UK",
  "display_name": "Traeth Llandanwg Beach, Llanfair, Llandanwg, Gwynedd, Wales, United Kingdom",
  "lon": -4.1268243,
  "lat": 52.8335785,
  "country": "gb",
  "precision": "locality",
  "curated": false,
  "source": "nominatim",
  "original_wordings": [
   "the beach"
  ],
  "ambiguous": false,
  "alternates": [
   {
    "display_name": "Llandanwg Beach, Llanfair, Llandanwg, Gwynedd, Wales, United Kingdom",
    "lon": -4.1271345,
    "lat": 52.8359121,
    "type": "undefined/beach"
   },
   {
    "display_name": "Traeth Harlech, Harlech, Llanfair, Gwynedd, Wales, United Kingdom",
    "lon": -4.1229308,
    "lat": 52.853773,
    "type": "undefined/beach"
   }
  ],
  "trips": [
   "1991-dinas-wales-via-wroxeter-tallybont-whitsun"
  ]
 },
 "calais-france": {
  "place_id": "calais-france",
  "normalized_name": "Calais, France",
  "display_name": "Calais, Pas-de-Calais, Hauts-de-France, Metropolitan France, 62100, France",
  "lon": 1.8538446,
  "lat": 50.9524769,
  "country": "fr",
  "precision": "locality",
  "curated": false,
  "source": "nominatim",
  "original_wordings": [
   "Calais",
   "(ferry to France); Calais"
  ],
  "ambiguous": false,
  "alternates": [
   {
    "display_name": "Calais, Pas-de-Calais, Hauts-de-France, Metropolitan France, 62100, France",
    "lon": 1.8538446,
    "lat": 50.9524769,
    "type": "undefined/city"
   },
   {
    "display_name": "Calais, Pas-de-Calais, Hauts-de-France, Metropolitan France, France",
    "lon": 1.9751479,
    "lat": 50.8730026,
    "type": "undefined/administrative"
   }
  ],
  "trips": [
   "1991-france-1991-montreuil-rouen-chartres-retrospective",
   "1993-france-italy-1993-rochester-guincourt-st",
   "1994-france-picardy-champagne-burgundy-laon-troyes",
   "2002-france-2002-vendeuil-chaumard-morvan-cluny",
   "2012-italy-via-belgium-germany-ulm-bolzano"
  ]
 },
 "montreuil-sur-mer-france": {
  "place_id": "montreuil-sur-mer-france",
  "normalized_name": "Montreuil-sur-Mer, France",
  "display_name": "Montreuil-sur-Mer, Pas-de-Calais, Hauts-de-France, Metropolitan France, 62170, France",
  "lon": 1.7631125,
  "lat": 50.4638918,
  "country": "fr",
  "precision": "locality",
  "curated": false,
  "source": "nominatim",
  "original_wordings": [
   "Montreuil",
   "White Swan campsite, Montreuil / Montreuil-sur-Mer",
   "Hermitage Hotel, Montreuil"
  ],
  "ambiguous": false,
  "alternates": [
   {
    "display_name": "Montreuil-sur-Mer, Pas-de-Calais, Hauts-de-France, Metropolitan France, France",
    "lon": 1.8927687,
    "lat": 50.4637311,
    "type": "undefined/administrative"
   }
  ],
  "trips": [
   "1991-france-1991-montreuil-rouen-chartres-retrospective",
   "2007-france-montreuil-reims-provence-malaucene-vaison",
   "2015-france-laon-vezelay-burgundy-puy-en"
  ]
 },
 "abbeville-france": {
  "place_id": "abbeville-france",
  "normalized_name": "Abbeville, France",
  "display_name": "Abbeville, Somme, Hauts-de-France, Metropolitan France, 80100, France",
  "lon": 1.8337029,
  "lat": 50.1060835,
  "country": "fr",
  "precision": "locality",
  "curated": false,
  "source": "nominatim",
  "original_wordings": [
   "Abbeville"
  ],
  "ambiguous": false,
  "alternates": [
   {
    "display_name": "Abbeville, Somme, Hauts-de-France, Metropolitan France, France",
    "lon": 1.7724713,
    "lat": 50.14741,
    "type": "undefined/administrative"
   }
  ],
  "trips": [
   "1991-france-1991-montreuil-rouen-chartres-retrospective",
   "2006-france-montreuil-bauge-opera-auvergne-millau",
   "2013-france-picardy-burgundy-st-quentin-montbard"
  ]
 },
 "rouen-france": {
  "place_id": "rouen-france",
  "normalized_name": "Rouen, France",
  "display_name": "Rouen, Seine-Maritime, Normandy, Metropolitan France, France",
  "lon": 1.0939658,
  "lat": 49.4404591,
  "country": "fr",
  "precision": "locality",
  "curated": false,
  "source": "nominatim",
  "original_wordings": [
   "Rouen"
  ],
  "ambiguous": false,
  "alternates": [
   {
    "display_name": "Rouen, Seine-Maritime, Normandy, Metropolitan France, France",
    "lon": 1.0221643,
    "lat": 49.518435,
    "type": "undefined/administrative"
   }
  ],
  "trips": [
   "1991-france-1991-montreuil-rouen-chartres-retrospective",
   "2018-kent-france-ightham-mote-stalisfield-loire"
  ]
 },
 "saint-illiers-la-ville-france": {
  "place_id": "saint-illiers-la-ville-france",
  "normalized_name": "Saint-Illiers-la-Ville, France",
  "display_name": "Saint-Illiers-la-Ville, Mantes-la-Jolie, Yvelines, Ile-de-France, Metropolitan France, 78980, France",
  "lon": 1.5400527,
  "lat": 48.9763914,
  "country": "fr",
  "precision": "locality",
  "curated": false,
  "source": "nominatim",
  "original_wordings": [
   "St. Illiers [?en] Ville",
   "St. Illiers la Ville"
  ],
  "ambiguous": false,
  "alternates": [],
  "trips": [
   "1991-france-loire-auvergne-chartres-chenonceaux-conques",
   "1992-france-1992-loire-perigord-pont-audemer"
  ]
 },
 "chartres-france": {
  "place_id": "chartres-france",
  "normalized_name": "Chartres, France",
  "display_name": "Chartres, Eure-et-Loir, Centre-Val de Loire, Metropolitan France, 28000, France",
  "lon": 1.4881434,
  "lat": 48.4438601,
  "country": "fr",
  "precision": "locality",
  "curated": false,
  "source": "nominatim",
  "original_wordings": [
   "Chartres"
  ],
  "ambiguous": false,
  "alternates": [
   {
    "display_name": "Chartres, Eure-et-Loir, Centre-Val de Loire, Metropolitan France, France",
    "lon": 1.5411174,
    "lat": 48.3809797,
    "type": "undefined/administrative"
   }
  ],
  "trips": [
   "1991-france-loire-auvergne-chartres-chenonceaux-conques",
   "1992-france-1992-loire-perigord-pont-audemer"
  ]
 },
 "beauce-windmill-france": {
  "place_id": "beauce-windmill-france",
  "normalized_name": "Beauce windmill, France",
  "display_name": null,
  "lon": null,
  "lat": null,
  "country": "fr",
  "precision": "unresolved",
  "curated": false,
  "source": "nominatim",
  "original_wordings": [
   "Le Moulin de Beauce"
  ],
  "ambiguous": false,
  "alternates": [],
  "trips": [
   "1991-france-loire-auvergne-chartres-chenonceaux-conques"
  ]
 },
 "mesland-france": {
  "place_id": "mesland-france",
  "normalized_name": "Mesland, France",
  "display_name": "Mesland, Blois, Loir-et-Cher, Centre-Val de Loire, Metropolitan France, 41150, France",
  "lon": 1.1228134,
  "lat": 47.5097085,
  "country": "fr",
  "precision": "locality",
  "curated": false,
  "source": "nominatim",
  "original_wordings": [
   "Val de Loire ... Mesland"
  ],
  "ambiguous": false,
  "alternates": [],
  "trips": [
   "1991-france-loire-auvergne-chartres-chenonceaux-conques"
  ]
 },
 "chaumont-sur-loire-france": {
  "place_id": "chaumont-sur-loire-france",
  "normalized_name": "Chaumont-sur-Loire, France",
  "display_name": "Chaumont-sur-Loire, Blois, Loir-et-Cher, Centre-Val de Loire, Metropolitan France, 41150, France",
  "lon": 1.1903903,
  "lat": 47.4781489,
  "country": "fr",
  "precision": "locality",
  "curated": false,
  "source": "nominatim",
  "original_wordings": [
   "Chaumont"
  ],
  "ambiguous": false,
  "alternates": [],
  "trips": [
   "1991-france-loire-auvergne-chartres-chenonceaux-conques"
  ]
 },
 "chateau-de-chenonceau-france": {
  "place_id": "chateau-de-chenonceau-france",
  "normalized_name": "Château de Chenonceau, France",
  "display_name": "Chateau de Chenonceau, Château de Chenonceau, Le Regain, Parc de Chenonceaux, Chenonceaux, Loches, Indre-et-Loire, Centre-Val de Loire, Metropolitan France, 37150, France",
  "lon": 1.0704175,
  "lat": 47.3246221,
  "country": "fr",
  "precision": "exact",
  "curated": false,
  "source": "nominatim",
  "original_wordings": [
   "Chenonceaux"
  ],
  "ambiguous": false,
  "alternates": [
   {
    "display_name": "Château de Chenonceau, Le Regain, Parc de Chenonceaux, Chenonceaux, Loches, Indre-et-Loire, Centre-Val de Loire, Metropolitan France, 37150, France",
    "lon": 1.0699276,
    "lat": 47.3253471,
    "type": "undefined/pedestrian"
   },
   {
    "display_name": "Château de Chenonceau, Parc de Chenonceaux, Chenonceaux, Loches, Indre-et-Loire, Centre-Val de Loire, Metropolitan France, 37150, France",
    "lon": 1.0699199,
    "lat": 47.3252886,
    "type": "undefined/pedestrian"
   }
  ],
  "trips": [
   "1991-france-loire-auvergne-chartres-chenonceaux-conques"
  ]
 },
 "montresor-france": {
  "place_id": "montresor-france",
  "normalized_name": "Montrésor, France",
  "display_name": "Montrésor, Loches, Indre-et-Loire, Centre-Val de Loire, Metropolitan France, 37460, France",
  "lon": 1.2016534,
  "lat": 47.1566605,
  "country": "fr",
  "precision": "locality",
  "curated": false,
  "source": "nominatim",
  "original_wordings": [
   "Chenillé Montrésor"
  ],
  "ambiguous": false,
  "alternates": [],
  "trips": [
   "1991-france-loire-auvergne-chartres-chenonceaux-conques"
  ]
 },